ID,area,comment,confidence,lat,lng,name,negative,positive,repost,sentiment,thumb,time,uid_0,uid_1,userarea,Shape_Leng,area_code,count,txt
1,武汉·阳光在线,0,0.970603,30.49907939,114.3987324,没有白昼的猫头鹰,0.986771,0.0132288,0,0,0,01月10日 18:58, , ,0,2.931269894,10,1,再这么咳下去，要咳出肺炎
2,武汉·武汉市第一医院,1,0.999723,30.5745905,114.2666098,不动声色的宝宝,0.999875,0.000124758,0,0,0,01月11日 08:53, , ,湖北 武汉,0.410438256,21,1,夜班最怕收毛毛尤其是出不久就重症肺炎的更可怕的是你还要教他的猪一样的父母怎么正确喂奶才不会把她的吖呛死求你们了，不要妄想二胎了害人害己啊
3,武汉·杨家湾,4,0.496211,30.5079676,114.3733181,李弃疗185,0.226705,0.773295,0,2,0,01月15日 08:56, , ,湖北 武汉,2.931269894,10,1,怎么办，每天都要坐地铁往返同济医院的我有点慌了。大家出门一定要戴口罩哟！#武汉肺炎不排除有限人传人可能#
4,武汉·万科汉口传奇唐樾,1,0.973294,30.62222866,114.2581609,司徒翾,0.987982,0.0120178,0,0,0,01月15日 21:56, , ,湖北 武汉,0.30871907,20,1,耶了B    心里在打鼓不会是染上了那个新病毒肺炎吧
5,武汉·宏基汽车客运站,1,0.942312,30.53589227,114.3120913,张边love,0.97404,0.0259597,1,0,0,01月18日 12:59, , ,湖北 武汉,0.918169117,23,1,汽车站还是会查一下体温的，还是在防范肺炎影响
6,武汉·后湖,0,0.725706,30.64924688,114.3013156,王者归来-199001,0.876568,0.123432,0,0,0,01月18日 16:27, , ,0,0.44466066,18,1,泰国发现第二例新型冠状病毒肺炎患者 武汉新型冠状感染肺炎症状是什么？会传染人吗？--手机中研网@QQ浏览器 O网页链接
7,武汉·景虹花园,0,0.804311,30.51801471,114.3160404,飞菲的新家,0.0880602,0.91194,0,2,0,01月18日 20:57, , ,湖北 武汉,2.931269894,10,1,#武汉病毒性肺炎5大谣言#
8,武汉·后湖,8,0.999233,30.64924688,114.3013156,波斯小喵眯眯眼,0.000345164,0.999655,0,2,0,01月19日 13:58, , ,湖北 武汉,0.44466066,18,1,武汉肺炎反正比报道的严重我的肺炎是没有太大问题检查结果都很ok啦公司提前放假咯今天在床上做了一天各种表小可爱一直陪着我2020一定是幸福的一年
9,武汉·南湖名都,5,0.310466,30.50195978,114.3195975,X徐清晨,0.31029,0.68971,0,2,0,01月19日 15:25, , ,湖北 武汉,2.931269894,10,1,医院爆满新型冠状病毒肺炎
10,武汉·街道口,4,0.380019,30.52650357,114.3537022,免费占卜师沐沐,0.278991,0.721009,0,2,0,01月19日 15:25, , ,湖北 武汉,2.931269894,10,1,#上海肺炎##深圳肺炎# 怎么突然就降热搜了，本来我还想着老老实实预防着，但是看热搜降得这么快，我有点慌
11,武汉·武汉音乐学院,4,0.928632,30.53909656,114.2860465,Maxpx,0.0321155,0.967884,0,2,0,01月19日 18:26, , ,其他,0.918169117,23,1,关于肺炎
12,武汉·武汉大学人民医院,218,0.516634,30.53766061,114.2939246,Mr_涂先森,0.217515,0.782485,15,2,0,01月19日 22:55, , ,湖北 武汉,0.918169117,23,1,疫情可防可控，舆情也可防可控还是做好自我防护为先再坚持五天逃离武汉回家过年??#新型冠状病毒传染来源还未找到##武汉发现不明原因肺炎#
13,武汉·红钢城,1,0.996281,30.64005723,114.3951411,十兄弟一条心,0.998326,0.00167365,0,0,0,01月20日 08:30, , ,湖北 武汉,0.721320639,19,1,给肺炎占了一卦 竟然无制。一定要注意，做好防护
14,武汉·光谷软件园,1,0.0251457,30.47945602,114.4011938,life_imprisonment0,0.561316,0.438684,0,0,0,01月20日 09:23, , ,0,2.931269894,10,1,#武汉卫健委发布病毒性肺炎高发注意事项#马上都要春运了…恐慌
15,武汉·湖北卫视栏目部,0,0.82259,30.59520986,114.2995562,吃土的肥肥虾,0.0798346,0.920165,0,2,0,01月20日 09:15,str,wghere,0,0.44466066,18,1,#武汉新增136例新型冠状病毒肺炎病例##北京确诊2例新型冠状病毒肺炎病例##广东确诊1例新型冠状病毒肺炎病例# ???有点慌
16,武汉·武汉高铁站,7,0.996268,30.59386784,114.2866731,山丘小狐狸,0.998321,0.00167936,0,0,0,01月20日 12:50, , ,湖北 武汉,0.44466066,18,1,因为这次肺炎，不敢坐地铁，第一次让我爸来接，之前打了个电话: 挂了挂了，我在导航，不知道往那边走，可能除了菜场，上班，外婆家(有时也会。。。），一个多小时过去了（40分钟车程），咋也不敢打电话，咋也不敢问，咋也不知道发生了什么，我还要等多久呢??
17,武汉·航海汽车客运站,0,0.975131,30.52984702,114.3080416,小a儿-1993,0.0111911,0.988809,0,2,0,01月20日 13:46, , ,湖北 武汉,0.918169117,23,1,#武汉卫健委发布病毒性肺炎高发注意事项#在武汉的小伙伴有注意自己的身体    政府工作做的还是不错的   大家都健健康康  平平安安的过年！
18,武汉·统建·天成美雅,12,0.517037,30.48932162,114.43157,吃瓜群众最靠不住,0.782667,0.217333,0,0,0,01月20日 13:26, , ,湖北 武汉,2.931269894,10,1,#武汉卫健委发布病毒性肺炎高发注意事项# 公司都开始统计回武汉人员状况了
19,武汉·新华路体育场,0,0.969142,30.58917249,114.2684565,缓缓归来cy,0.986114,0.0138859,0,0,0,01月20日 13:18, , ,湖北 武汉,0.30871907,20,1,#武汉卫健委发布病毒性肺炎高发注意事项#外科口罩都没有，怎么预防啊？国家赶紧让厂家多生产点呀
20,武汉·武汉高铁站,5,0.875836,30.59386784,114.2866731,新文青翀仔,0.0558735,0.944126,0,2,0,01月20日 13:11, , ,湖北 武汉,0.44466066,18,1,#武汉机场火车站检测体温# 家里的朋友们注意了我要回去啦#武汉新增136例新型冠状病毒肺炎病例#
21,武汉·街道口,11,0.997455,30.52650357,114.3537022,免费占卜师沐沐,0.998855,0.00114513,0,0,0,01月20日 14:05, , ,湖北 武汉,2.931269894,10,1,#韩国现不明原因肺炎病例# 看到网上说让武汉人不要到处跑，把病毒带出去，确实是武汉这边开始发现的，但是别地域黑太过分了啊，难道还闭关锁市不成？
22,武汉·江汉路,0,0.776248,30.5861812,114.2823964,天怡111,0.899311,0.100689,0,0,0,01月20日 16:59,str,tianyi111,0,0.44466066,18,1,喝咖啡防肺炎不
23,武汉·武汉大学中南医院,8,0.832228,30.55545495,114.3471516,哪有那么多的改变,0.491611,0.508389,0,1,0,01月20日 16:34, , ,0,0.918169117,23,1,#武汉卫健委发布病毒性肺炎高发注意事项#我在医院，发热了，保佑我
24,武汉·宝通寺,1,0.956155,30.53420753,114.3352476,五音不全的柠檬,0.98027,0.0197302,0,0,0,01月20日 17:25, , ,湖北 武汉,0.918169117,23,1,从发现新型肺炎到现在没觉得有多恐怖，今天出门办事才发现好多人都带了口罩，搞得没带口罩的我在人群中瑟瑟发抖！
25,武汉·东湖风景区,4,0.940732,30.54583487,114.4004719,72把刀,0.0266705,0.973329,0,2,0,01月20日 17:10,str,sunm,0,0.918169117,23,1,日常复查，其实这些肺炎注意事项都是我的日常，完全不用担心我，我发现同济医院还挺多带口罩的嘛，不必恐慌，引起重视注意下也挺好
26,武汉·光谷天地,12,0.734318,30.47892653,114.4076088,#NAME?,0.880443,0.119557,0,0,0,01月20日 17:10, , ,0,2.931269894,10,1,最近肺炎很严重 男孩子尽量不要出门到处跑 特别是酒吧网吧ktv夜总会场所 人潮拥挤 容易感染 没关系 你来我房间就好 我房间每天空荡荡
27,武汉·汉口站,0,0.829681,30.62153636,114.24898,武汉大学研究生会,0.0766436,0.923356,0,2,0,01月20日 19:25,str,whugu,0,0.30871907,20,1,【速速转存！#新型冠状病毒感染的肺炎症状#有哪些？#春运如何严防新型冠状病毒# 你想知道的全在这里！】一图了解，扩散周知！#卫健委提醒病毒性肺炎防控事项#    （来源：青春湖北）
28,武汉·南湖新城家园,18,0.266389,30.49315916,114.3223613,蓬蓬滴世盖,0.536681,0.463319,1,1,0,01月20日 20:59,str,xiaozhuhu,0,2.931269894,10,1,为了预防肺炎，我直接买了一辆车 (虽然我还不会开)
29,武汉·徐东大街,3,0.620713,30.57885319,114.356581,娟娟Barbie,0.481036,0.518964,0,1,0,01月20日 20:44,str,juanjuanzeng,0,0.918169117,23,1,#上海确诊首例新型冠状病毒感染肺炎#肿么办还回不回去过年了
30,武汉·武商众圆广场,3,0.266427,30.62887293,114.3713312,微步丶,0.330108,0.669892,0,2,0,01月20日 20:44, , ,湖北,0.721320639,19,1,#境内确诊217例新型冠状病毒肺炎病例#就，在家躲着呗
31,武汉·后湖,0,0.917083,30.64924688,114.3013156,大瓶秘密花园,0.962687,0.0373128,5,0,0,01月20日 20:37, , ,湖北 武汉,0.44466066,18,1,下班地铁上 我觉得自己像个战士 可为什么你们居然还是不戴口罩 是懒惰呢还是愚昧#境内确诊217例新型冠状病毒肺炎病例#
32,武汉·唐家墩,0,0.950162,30.61638776,114.2649376,丶婳墨清浅,0.0224272,0.977573,0,2,0,01月20日 20:16, , ,湖北 武汉,0.30871907,20,1,#境内确诊217例新型冠状病毒肺炎病例# 保持平和心态，做好防范措施，不必恐慌，该干啥干啥，明天继续上班
33,武汉·江汉路,3,0.836313,30.5861812,114.2823964,顾美人溪兮,0.0736591,0.926341,0,2,0,01月20日 21:39, , ,湖北 武汉,0.44466066,18,1,#境内确诊217例新型冠状病毒肺炎病例#
34,武汉·武汉华润紫云府,0,0.876194,30.47761877,114.2737091,神不在的街角,0.0557129,0.944287,0,2,0,01月20日 22:39, , ,湖北 武汉,2.931269894,10,1,#境内确诊217例新型冠状病毒肺炎病例#武汉的瑟瑟发抖不敢出门了
35,武汉·金地·澜菲溪岸,5,0.995772,30.51649658,114.2057997,张钧甯的小迷弟,0.998098,0.00190241,0,0,0,01月20日 22:21, , ,湖北 武汉,0.52938045,22,1,肺炎差点要了??的命
36,武汉·城开·汉口秀园,7,0.971215,30.63959232,114.2576514,罗云熙的vlog,0.987047,0.0129531,0,0,0,01月20日 23:26, , ,其他,0.30871907,20,1,#钟南山肯定新型冠状病毒肺炎人传人#我让我爸不要出门，他问我菜场能不能去，我竟无法回答……
37,武汉·江滩,6,0.980181,30.58829655,114.2972908,谁他大爷的,0.991082,0.00891833,0,0,0,01月21日 00:48, , ,湖北 武汉,0.44466066,18,1,太震惊了，刚下班，在车上有时间刷微博，才发现，原来病毒肺炎情况已经这么严重了，刚开始，我还纳闷，怎么那么多朋友来问我情况，保佑我们，安稳度过这段时间??
38,武汉·汉口火车站,0,0.564196,30.62153636,114.24898,丶婳墨清浅,0.196112,0.803888,0,2,0,01月21日 00:26, , ,湖北 武汉,0.30871907,20,1,#境内确诊217例新型冠状病毒肺炎病例#   淡定淡定淡定，出门戴口罩，避免去人流量大的地方，勤洗手，尽量自己做饭，不慌不慌不慌，我稳的一批！
39,武汉·金地自在城,0,0.953388,30.60934717,114.3809182,教子育儿有方,0.979024,0.0209755,0,0,0,01月21日 00:20,str,mesny,0,2.931269894,10,1,新型冠状病毒感染的肺炎有何症状？如何预防？
40,武汉·司门口,21,0.678287,30.54946088,114.294989,VivaY12,0.144771,0.855229,2,2,0,01月21日 00:15, , ,湖北 武汉,0.918169117,23,1,#武汉病毒性肺炎5大谣言# ?????♀?
41,武汉·泓悦府,135,0.390619,30.51910943,114.3381667,豆豆家的银点渐层,0.274221,0.725779,1,2,0,01月21日 00:15, , ,湖北 武汉,2.931269894,10,1,2020年1月21日0:11分，不知道是因为紧张还是怎么回事，下班后一直有点发烧，此时此刻老公还因为新型冠状病毒肺炎的事，在医院加班。有了孩子后，最担心的就是怕宝宝生病。语无伦次了，想有个人抱抱我。#境内确诊217例新型冠状病毒肺炎病例##钟南山肯定新型冠状病毒肺炎人传?
42,武汉·江汉北路,42,0.840938,30.59125805,114.2741554,夏木先生,0.071578,0.928422,8,2,0,01月21日 00:12,str,sangxiamu,0,0.30871907,20,1,#有医务人员被传染新型冠状病毒肺炎#深夜还在加班的武汉市疾控中心。
43,武汉·武汉高铁站,27,0.851392,30.59386784,114.2866731,我本一书生,0.933126,0.0668736,3,0,0,01月21日 00:08,str,wobenyishusheng,0,0.44466066,18,1,#境内确诊217例新型冠状病毒肺炎病例#今天早上的武汉高铁站，戴口罩的旅客不到10%，戴口罩的工作人员为0。不知道该说什么
44,武汉·后湖,8,0.837311,30.64924688,114.3013156,熊菲菲-vi,0.92679,0.0732102,0,0,0,01月21日 05:58, , ,湖北 武汉,0.44466066,18,1,#境内确诊217例新型冠状病毒肺炎病例# 半夜失眠刷微博到刷到害怕死 根本睡不着刷到怀疑自己的症状就是病魔快快走?????? ???
45,武汉·街道口,0,0.841946,30.52650357,114.3537022,哪有那么多的改变,0.928876,0.0711244,0,0,0,01月21日 08:35, , ,0,2.931269894,10,1,#钟南山肯定新型冠状病毒肺炎人传人#朋友圈里的武汉人居然还有这种心态好好防护，请重视好么！不恐慌也要认真对待啊！
46,武汉·汉口火车站,1,0.611317,30.62153636,114.24898,夕白_Bonnie,0.174908,0.825092,0,2,0,01月21日 08:25, , ,湖北 武汉,0.30871907,20,1,#Run-Lany# 是归途还是逃离#武汉新增136例新型冠状病毒肺炎病例#
47,武汉·江汉路步行商业街,7,0.999009,30.58605471,114.2825757,从此奔天涯,0.999554,0.000445951,0,0,0,01月21日 09:44, , ,湖北 武汉,0.44466066,18,1,连续三年在科过年，今年好不容易赶回家，结果碰上这闹心的肺炎，计划都打乱了，看新闻越来越严重，哪都不敢去宅在家，回来真不是时候。
48,武汉·汉口站,11,0.0781051,30.62153636,114.24898,给予你晚风,0.414853,0.585147,2,2,0,01月21日 10:17, , ,湖北 武汉,0.30871907,20,1,昨天在武汉站看到的是百分之八十的人戴口罩，今天汉口站看到有百分之九十五了，昨天回来上班就在站里没出去过#新型冠状病毒肺炎纳入法定传染病#
49,武汉·龙江庭院B区,0,0.987902,30.54655048,114.2479178,170老弟,0.994556,0.00544421,0,0,0,01月21日 10:17, , ,湖北 武汉,0.52938045,22,1,肺炎莫挨老子
50,武汉·武昌火车站,12,0.981737,30.53088598,114.3121545,CCheny--,0.991782,0.0082184,1,0,0,01月21日 11:59, , ,湖北 武汉,0.918169117,23,1,还有很多铮铮铁汉不戴口罩?? #钟南山肯定新型冠状病毒肺炎人传人#
51,武汉·福莱中心,2,0.993968,30.57060344,114.3153046,小兔叽不生气,0.997286,0.00271443,0,0,0,01月21日 11:30, , ,湖北 武汉,0.918169117,23,1,还在武汉搬砖的我 今天开始慌了要不这砖不搬了？搬出不明肺炎代价就大了
52,武汉·小东门,3,0.630388,30.54530088,114.3110341,卓尔故乡的云,0.833674,0.166326,0,0,0,01月21日 11:21, , ,湖北 武汉,0.918169117,23,1,好吧，我认怂#新型冠状病毒肺炎纳入法定传染病#
53,武汉·泛海城市广场,33,0.195129,30.60558473,114.2500393,我才是任土土,0.637808,0.362192,1,0,0,01月21日 11:07, , ,湖北 武汉,0.30871907,20,1,备足了口罩做了保养换了电瓶准备逃离武汉结果今天爆胎#武汉新增136例新型冠状病毒肺炎病例#
54,武汉·东湖风景区,3,0.998485,30.54583487,114.4004719,安妮是个外星人,0.999318,0.000681834,0,0,0,01月21日 13:59,str,arsenalannie,0,0.918169117,23,1,#新型冠状病毒肺炎纳入法定传染病#今天来的游客劝都劝不走，非要进园，还都不带口罩，员工都怕得要死
55,武汉·佳兆业金域天下,0,0.454829,30.48339815,114.2863106,梧桐若语汪贤,0.245327,0.754673,0,2,0,01月21日 13:47, , ,其他,2.931269894,10,1,闻名天下，不需要热干面，黄鹤楼，东湖，鸭脖子，一只肺炎病毒就够了……
56,武汉·港澳台风情街,2,0.763795,30.58788561,114.2885601,没有披风的帅超人,0.893708,0.106292,0,0,0,01月21日 13:47, , ,湖北 荆州,0.44466066,18,1,多洗手，少出门，出门一定要带口罩??感冒发烧了一定要即使看医#钟南山肯定新型冠状病毒肺炎人传人#
57,武汉·街道口,3,0.998829,30.52650357,114.3537022,哪有那么多的改变,0.999473,0.000526764,0,0,0,01月21日 14:38, , ,0,2.931269894,10,1,#越是不明肺炎越不能让公众不明真相#昨天的体温和今天的体温已经退烧了还是决定不回老家过年就待在武汉给父母解释了很久最后理解了希望大家都重视这次疫情像钟院士说的不要盲目乐观年轻人多跟老人说明情况注意防范希望所有人都平安  ?
58,武汉·华南海鲜市场,1,0.841277,30.61960667,114.2567076,瓦屋春哥,0.0714255,0.928575,0,2,0,01月21日 18:50, , ,0,0.30871907,20,1,【武汉市卫健委，截止2020年1月21日下午6:43】关于新型冠状病毒感染的肺炎情况通报。
59,武汉·江汉路,0,0.407315,30.5861812,114.2823964,我是陆佳宝,0.529634,0.470366,0,1,0,01月21日 18:24, , ,湖北 武汉,0.44466066,18,1,你们认真想想 爱情都轮不到你 肺炎会轮到你吗 别太担心 ???，哈哈哈
60,武汉·团结名居·枫园,2,0.521614,30.58747595,114.3480891,陌儿的春天,0.215274,0.784726,0,2,0,01月21日 19:27, , ,湖北 武汉,2.931269894,10,1,#武汉新型肺炎死亡病例增至6例#准备再买点口罩，在武汉真的各个药店都买不到了，网上也飞涨，年后上班真的是担忧
61,武汉·光谷天地,39,0.997289,30.47892653,114.4076088,康康欧巴666,0.99878,0.00121995,0,0,0,01月21日 20:38, , ,0,2.931269894,10,1,增强自身免疫力远比戴口罩有用的多，不要在朋友圈逼逼赖赖了，爱情都轮不到你，更何况肺炎呢？是福不是祸是祸躲不过，该干嘛干嘛！
62,武汉·唐家墩,2,0.366001,30.61638776,114.2649376,曾茜茜兒,0.285299,0.714701,0,2,0,01月21日 20:23, , ,0,0.30871907,20,1,#武汉新型肺炎患者救治由政府买单#今天街上的年轻人都带口罩了，有几个没带口罩的我也免费送了几个，他们说药店卖空了。昨天晚上我去了7-8家药店也是卖空了
63,武汉·唐家墩,0,0.769751,30.61638776,114.2649376,曾茜茜兒,0.103612,0.896388,0,2,0,01月21日 20:18, , ,0,0.30871907,20,1,#武汉新型肺炎患者救治均由政府买单#用的这里有个患者治疗了10多天花了好几万了都。希望武汉平安，阿中真棒！
64,武汉·宝通寺,5,0.48866,30.53420753,114.3352476,不倾城的明媚与阳光,0.230103,0.769897,0,2,0,01月21日 21:42,str,nicholasxxn,0,0.918169117,23,1,#国内确诊291例新型冠状病毒肺炎病例# 健康所系，性命相托
65,武汉·中建康城,0,0.193645,30.47344108,114.4017076,千本雪欢,0.36286,0.63714,0,2,0,01月21日 21:38, , ,湖北 武汉,2.931269894,10,1,麻麻打电话给我说最近青山区也发现有感染新型冠状病毒肺炎，说爸爸想赶紧把我接回来送去乡下避难
66,武汉·万科城花璟苑,11,0.0990522,30.47477593,114.4090882,冰淇淋哈哈哈她她她,0.405426,0.594573,0,2,0,01月21日 21:30, , ,0,2.931269894,10,1,#国内确诊291例新型冠状病毒肺炎病例# 我讨厌憎恶爱吃野味的人，吃完请自己爆炸
67,武汉·南湖·锦城,63,0.98604,30.53320482,114.2001709,xh的脸又红了,0.993718,0.00628186,1,0,0,01月21日 22:47, , ,湖北 武汉,0.52938045,22,1,#黄冈新增12例新型肺炎#家里人真的一点都不重视啊，我爸今天还说了一句特别让我寒心的话，他说这么多人，又不是你一个人……我顿时无fuck可说
68,武汉·市民之家,4,0.856256,30.66114337,114.2894243,一只叫黑豆的猫,0.0646848,0.935315,0,2,0,01月21日 23:27, , ,0,0.44466066,18,1,武汉最近的肺炎闹得人心惶惶，还有市面上各类无良媒体的看热闹不嫌事大。作为普通的一员，在这种敏感的时刻，不信谣、不传谣、不造谣，出门一定戴口罩，不给别人添麻烦就是最大的功德。感谢一线医护人员的付出，希望每个人都平安健康
69,武汉·后湖,0,0.980084,30.64924688,114.3013156,慢生活的小蜗牛405,0.00896234,0.991038,0,2,0,01月21日 23:21, , ,湖北 武汉,0.44466066,18,1,#黄冈新增12例新型肺炎#天哪??希望大家都平安??????
70,武汉·绿色家园,5,0.999294,30.55716156,114.3434712,居老师家小姑娘,0.999682,0.000317655,0,0,0,01月21日 23:03, , ,0,0.918169117,23,1,#黄冈新增12例新型肺炎#我武汉的，打算回黄冈过年，这个年看来只能在家自我隔离了，完全不知道哪里安全年会上老板居然还公然宣称武汉肺炎没外界说的那么严重，中老年人这么不怕死吗
71,武汉·友谊大厦,5,0.243831,30.57873245,114.2743603,座下落梅,0.340276,0.659724,0,2,0,01月22日 00:42, , ,0,0.30871907,20,1,汉口协和医院的街边，无话可说#国内确诊291例新型冠状病毒肺炎病例#
72,武汉·艾尚花桥,6,0.644215,30.62042198,114.2827897,花舞街_ZhuYR,0.160103,0.839897,0,2,0,01月22日 00:39,str,huawujiebigzhu,0,0.44466066,18,1,大晚上刷新一下就有新增被感染的这次这么害怕#专家称武汉冠状病毒肺炎总体可治#
73,武汉·光谷MUSE酒吧,31,0.0295119,30.50663311,114.3946517,本是骆小姐,0.43672,0.56328,0,2,0,01月22日 00:12, , ,湖北 武汉,2.931269894,10,1,大家不要恐慌，爱情都轮不到你，肺炎还能宠幸你？????（进酒吧都是要量体温的哦，里面很安全）
74,武汉·光谷·理想城,2,0.935589,30.47420819,114.4112861,浪欧巴fire,0.0289851,0.971015,0,2,0,01月22日 02:00, , ,湖北 武汉,2.931269894,10,1,#全国已确诊新型肺炎病例319例#
75,武汉·汉口火车站,5,0.956471,30.62153636,114.24898,向俊_君,0.0195882,0.980412,0,2,0,01月22日 07:15, , ,其他,0.30871907,20,1,#全国已确诊新型肺炎病例319例#今天就回去了，一样，没事
76,武汉·武汉美术馆,1,0.537386,30.58653726,114.2875434,武汉江城苏剑,0.208176,0.791824,0,2,0,01月22日 08:53, , ,湖北 武汉,0.44466066,18,1,专家：新型冠状病毒肺炎潜伏期平均约7天国家卫健委专家组成员高占成表示，新型冠状病毒肺炎的潜伏期平均在7天左右，短的在2-3天，长的10-12天。如出现发热、干咳、呼吸衰竭、休克等症状，请及时就医。
77,武汉·金地雄楚1号,43,0.773557,30.49869731,114.3847887,我永远臣服于温柔永远为温柔心动,0.898101,0.101899,0,0,0,01月22日 08:34, , ,0,2.931269894,10,1,#全国已确诊新型肺炎病例319例#买了菜 退了票 闭关一个月 一个人呆着晚上很害怕 有什么能克服一下我心理的恐惧吗晚上不敢闭眼 不到天亮不敢睡觉
78,武汉·武商众圆广场,0,0.510782,30.62887293,114.3713312,沁一夏夏,0.779852,0.220148,0,0,0,01月22日 09:34, , ,0,0.721320639,19,1,补休在家，闲来无事，逛下超市！人不多，但大多数人都提高意识，戴了口罩！快滚蛋吧，病毒????????……#新型肺炎确诊440例死亡9例#
79,武汉·湖北省人民医院,4,0.661349,30.59323919,114.2905066,Savage_Lee,0.847607,0.152393,0,0,0,01月22日 09:06, , ,0,0.44466066,18,1,#国内确诊324例新型肺炎病例# 人少了好多，感觉多的就是门诊进门量体温的地方，在医院还是不带口罩的心是真的大啊草。
80,武汉·后湖,0,0.557498,30.64924688,114.3013156,龙门世天,0.800874,0.199126,0,0,0,01月22日 10:59,str,quanzhendaoshi,0,0.44466066,18,1,#新型肺炎确诊440例死亡9例#当初是不是误会@新京报 ，那时候好多人举报新京报，说他造谣
81,武汉·司门口,4,0.994397,30.54946088,114.294989,菜而好玩胖且能吃,0.997479,0.00252146,0,0,0,01月22日 10:23, , ,湖北 武汉,0.918169117,23,1,#国内确诊324例新型肺炎病例# 情形已经这么严峻了，不能做好防范措施，闭嘴不开杠过个年？  ???
82,武汉·鹦鹉大道,0,0.829021,30.53700775,114.2616616,是小张张嘞,0.0769405,0.923059,0,2,0,01月22日 11:55, , ,湖北 武汉,0.52938045,22,1,希望微博下一次推给我的消息是研发出了对抗新型肺炎的特效药
83,武汉·后湖,0,0.973228,30.64924688,114.3013156,TE好好先生,0.987953,0.0120473,0,0,0,01月22日 12:45, , ,湖北 武汉,0.44466066,18,1,好久没有这个点还在上班了，不回家过年确实毫无期待，最关键这个肺炎好不消停，焦虑
84,武汉·新生活摩尔城,6,0.637661,30.6580874,114.316865,玫瑰花香水YX,0.163053,0.836947,0,2,0,01月22日 12:40, , ,浙江 杭州,0.44466066,18,1,武汉重点肺炎传染区 ????  两个人粗门不容易啊 ?? ?? ??#武汉肺炎##早餐#
85,武汉·楚平路公交站,0,0.233263,30.50231718,114.3745922,小林夫人J-lin,0.654968,0.345032,0,0,0,01月22日 12:30, , ,其他,2.931269894,10,1,#新型肺炎确诊440例死亡9例#开始害怕
86,武汉·武汉万达汉秀剧场,2,0.278088,30.55414725,114.3424451,没有我想要的昵称了,0.324861,0.67514,0,2,0,01月22日 12:01, , ,湖北 武汉,0.918169117,23,1,老公生怕我不能回去了刚刚抱着儿子跟我视频，叫我下午早点打的去火车站，怕要检查#新型肺炎确诊440例死亡9例#
87,武汉·武汉大学信息学部,3,0.937805,30.53090969,114.3538559,Vitodler,0.0279875,0.972012,0,2,0,01月22日 14:43, , ,湖北 武汉,2.931269894,10,1,#新型肺炎确诊440例死亡9例# 成年人的世界，没有容易二字
88,武汉·武汉市汉口医院,6,0.999436,30.63044228,114.3146773,o易圈圈o,0.999746,0.000253796,0,0,0,01月22日 15:59, , ,湖北 武汉,0.44466066,18,1,#新型肺炎病例#我就想知道，我爸在所谓的定点医院 汉口医院 做了各种排除检查 确认是肺部非常见病毒感染，然后，就没有然后了？？也不确诊是不是冠状病毒，也不开药，直接让他回家隔离！？这就是ZF和指定医院的应对措施吗？所以440例之外还有多少像我爸这种患者呢？
89,武汉·楚河汉街,9,0.903824,30.55846603,114.33691,权恆,0.956721,0.0432791,0,0,0,01月22日 16:58, , ,湖北 武汉,2.931269894,10,1,肺炎好可怕，大家记得带口罩，能不要出门就不要出门。刚刚逛街买洗手液，没买到，就买了双鞋。
90,武汉·街道口,742,0.96393,30.52650357,114.3537022,他们叫我海彬哥,0.983768,0.0162315,116,0,0,01月22日 17:23, , ,湖北 武汉,2.931269894,10,1,#武汉市长回应万家宴##武汉市长下台# 政府职能部门天天忽悠武汉人说没事小事，导致不够重视！武汉肺炎大规模扩散政府要负主要责任！武汉市长下台！！
91,武汉·华中科技大学,2,0.972155,30.515377,114.4076895,汁墨_d_笛声,0.0125302,0.98747,3,2,0,01月22日 21:24,str,572090055,0,2.931269894,10,1,#武汉卫健委发布病毒性肺炎高发注意事项##武汉肺炎##新型冠状病毒# 第一次觉得疫情离自己如此之近
92,武汉·阅马场,3,0.969751,30.54189887,114.3005992,黄团元,0.986388,0.0136121,0,0,0,01月22日 21:24, , ,湖北 武汉,0.918169117,23,1,户部巷，武汉著名美食街。然而此时，商家关门，客迹罕至，此乃“武汉肺炎”之所致。感从中来：人头攒动百年香，今夜宽宽空荡荡。可恨肺炎快快亡，子时一过客盈巷。    ——即时口占
93,武汉·武汉大学中南医院,44,0.0591075,30.55545495,114.3471516,天哭了海澜,0.452955,0.547045,5,1,0,01月22日 22:59, , ,湖北 武汉,0.918169117,23,1,#抗击新型肺炎第一线#在全副武装的情况下工作和进行各种操作是对体力和耐力的考验，脱下防护服的那一刻才如释重负，汗水湿透了衣襟看到患者各种症状与指标的下降，是我们最希望看到的结果
94,武汉·江汉路,0,0.66506,30.5861812,114.2823964,沈峰律师-言达律师事务所,0.849277,0.150723,0,0,0,01月22日 23:12, , ,0,0.44466066,18,1,今天，我和女儿一起给家里的纱窗也带上了口罩。这些东西老早就买了，原来是用来准备对付雾霾的，一直没有用上，突然想起来，这次给用上了。我要响应政府号召，不离开武汉，率领全家就地抗击武汉肺炎??????
95,武汉·后湖,0,0.999279,30.64924688,114.3013156,狗崽崽好萌哦嘟嘟嘴,0.000324433,0.999676,0,2,0,01月23日 01:15, , , ,0.44466066,18,1,#全国确诊新型肺炎病例#武汉要坚持住阿 希望来年这座城的樱花依旧满地
96,武汉·东湖风景区,0,0.995355,30.54583487,114.4004719,kelo不加冰,0.0020903,0.99791,0,2,0,01月23日 01:15, , , ,0.918169117,23,1,嗯嗯继续保持，要做的更好。Lyy感谢！另外，我还想说一句#武汉肺炎# 武汉#稳住，我们能赢
97,武汉·江山如画四期,0,0.999053,30.56865193,114.2598287,冷暴力冠军_,0.999574,0.000425973,0,0,0,01月23日 03:34, , ,0,0.410438256,21,1,感觉Wi-Fi也有肺炎了妈的 打个王者卡死了。。。无语
98,武汉·武汉大学中南医院,31,0.99867,30.55545495,114.3471516,有味r,0.000598415,0.999402,0,2,0,01月23日 06:24, , , ,0.918169117,23,1,#武汉封城#  今年是过得最特殊的一个春节了一边沉浸在迎接新生命de喜悦中一边不停的刷到肺炎疫情得最新数据希望疫情早日得到控制！大家都平平安安安的！！??????????????????????
99,武汉·光谷青年城,1,0.999572,30.49489789,114.3988265,楊楊楊yly19,0.000192571,0.999807,0,2,0,01月23日 09:14, , , ,2.931269894,10,1,我爱武汉新年愿望是身边的人都能健健康康，武汉快点挺过#全国确诊新型肺炎病例# 这一关#武汉加油#
100,武汉·武汉市儿童医院,10,0.998447,30.63573648,114.3917392,梦君爱嗑大白兔,0.999301,0.000698699,0,0,0,01月23日 12:29, , , ,0.721320639,19,1,朋友圈不能散发负能量，但是我真的忍不住吐槽啊。劳资看个病太难了，太tm的难了，对于今天所有的新闻热搜，什么伤医不明肺炎，真的就两个字，活该。平时不注意，临时抱佛脚，没有天佑武汉，从武汉的处理和防范来说，这是迟早的事，只愿大家安好！
101,武汉·万科汉阳国际,7,0.452232,30.54769063,114.1930298,4个東西,0.753504,0.246496,1,0,0,01月23日 13:50, , , ,0.52938045,22,1,#全国确诊新型肺炎病例#武汉人也是受害者，不是病毒的发起者。需要的是理解不是谩骂。大家在配合在坚守，希望世界多点善良吧。
102,武汉·保利时代,0,0.679683,30.49360294,114.4022531,履束河,0.855857,0.144143,0,0,0,01月23日 13:38, , ,0,2.931269894,10,1,#全国确诊新型肺炎病例#这个时候有些人真是有病，刻意造谣官方没有动作，故意编造毫无根据的时间表，这些人蹭流量的biss
103,武汉·江腾广场,2,0.997338,30.53958919,114.2489382,大龙龙超帅,0.00119792,0.998802,0,2,0,01月23日 17:59, , ,0,0.52938045,22,1,#全国确诊新型肺炎病例#灾难面前人性淋漓尽致，一句话开心就好
104,武汉·天下·城市星座,17,0.998186,30.607094,114.2685378,Lang1103,0.000816324,0.999184,1,2,0,01月23日 17:18, , , ,0.30871907,20,1,确定一人一喵过年的第一天给我买菜给你洗澡突然找到我这个春节独自坚守这里的一个意义和目的了，我坚守你每天拉??????#2020春节留在武汉对抗新型肺炎的我们##Luca日常#
105,武汉·后湖,10,0.501631,30.64924688,114.3013156,你的小智障xxx,0.224266,0.775734,0,2,0,01月23日 18:39,str,wxx19970726,0,0.44466066,18,1,每一分一秒都在刷新闻 看着我又害怕又难过，作为重灾区 还是今天赶着回了重灾区的我祈求平平安安，祈求不要在严重了??????#全国确诊新型肺炎病例# 安安心心待在家，等着能给我们解禁的那一天
106,武汉·辛亥革命博物馆,4,0.999683,30.53945796,114.3003259,孙渺-,0.000142494,0.999858,2,2,0,01月23日 22:32, , , ,0.918169117,23,1,#全国确诊新型肺炎病例# 你我皆平凡，因勇敢而伟大。致敬，愿所有医护人员皆可平安归来??
107,武汉·花园道,7,0.643186,30.58474436,114.2802019,ohhFanFan,0.839434,0.160566,0,0,0,01月23日 23:38, , , ,0.30871907,20,1,躲过澳洲森林大火却没躲过武汉肺炎??????
108,武汉·江岸区,0,0.66414,30.60209808,114.3045486,爱猪咪的63酱,0.151137,0.848863,0,2,0,01月23日 23:34, , , ,0.44466066,18,1,武汉????????????新型冠状病毒肺炎疫情实时动态更新页面O网页链接 ???
109,武汉·后湖,3,0.999722,30.64924688,114.3013156,姿态xy,0.000124811,0.999875,0,2,0,01月10日 00:59, , , ,0.44466066,18,1,#愿你遇到的人都是温暖的# 下周就要在武汉看到我大栗姐姐真的超开心啊激动～挣钱真难呀 一切都会越来越好！！！
110,武汉·武汉莱斯国际酒店,0,0.991416,30.57241565,114.3485049,武汉品茶鲜花派送,0.00386263,0.996137,0,2,0,01月10日 00:59, , , ,0.918169117,23,1,#武汉记录##武汉夜生活##武汉品茶# 喝个茶在睡觉，身体健康长寿。
111,武汉·湖北工业大学,0,0.99799,30.4832079,114.3032878,鲍勃马利奥,0.000904428,0.999095,0,2,0,01月10日 00:59, , , ,2.931269894,10,1,欢迎来到②?②?#武汉约拍##索尼大法好##赛博朋克#
112,武汉·中南财经政法大学,5,0.986736,30.53575837,114.3072915,橙汁儿甜酒,0.0059689,0.994031,0,2,0,01月10日 00:37, , , ,0.918169117,23,1,打卡#宜家# 武汉宜家真的可以逛一天  也可以拍一天许愿??以后要努力挣钱然后来买买买
113,武汉·江汉路,0,0.984824,30.5861812,114.2823964,武汉无痕接发烫发染发One-高睿,0.00682918,0.993171,0,2,0,01月10日 00:15, , , ,0.44466066,18,1,人生没有白走的路，每一步都算数。弯路自有弯路存在的意义，武汉接发走下去，可能才能找到真正属于自己的路。
114,武汉·汉口火车站,0,0,30.62153636,114.24898,Crazy言覃白告,0,0,0,-1,0,01月10日 03:58, , ,0,0.30871907,20,1,凌晨4点，比预计的时间晚了19个小时，人生第一次误车，虽然有波折但也算是踏上回家的路了。不知怎的，取完票看见身旁的人无论年轻的学生还是中年返乡人无不透露出喜悦，大家似乎并没有在意这个时间点，心里只有回家。武汉，我们来年再见!
115,武汉·湖北经视大厦,1,0.982643,30.55031428,114.3321217,神仙ghost,0.00781061,0.992189,0,2,0,01月10日 05:57, , , ,0.918169117,23,1,"刚送走跟我关系最好的室友去统考,明明是她考试我急得一晚上没睡不知不觉在武汉都待了半年,从最开始抗拒厌恶到现在习惯 冷不丁的想要离开还有些不舍,在这边的人和事和记忆 日后的韩雪回想起来一定会很怀念 珍惜每一天??????Keep on dancing."
116,武汉·南湖花园,0,0.971649,30.51692249,114.3085138,慧和HuiHe,0.987242,0.0127579,0,0,0,01月10日 07:59,str,xiake0627,0,2.931269894,10,1,我丢~ 冷的我一夜没睡好  #武汉下雪#
117,武汉·黎黄陂路,27,0.999608,30.58986107,114.2943037,喜楽糖,0.000176615,0.999823,0,2,0,01月10日 08:47, , , ,0.44466066,18,1,快过年了，给自己添几件新的饰品，心情也会变好雨雪过后，在这里的懒人沙发窝一下午，一杯茶或一杯咖啡，喜欢这样慢慢的打发时间，开心就很好??岁间手作商店?咖啡饰品  |  黎黄陂路13号#武汉#
118,武汉·武汉美术馆,3,0.999942,30.58653726,114.2875434,武汉江城苏剑,2.62E-05,0.999974,1,2,0,01月10日 08:47, , , ,0.44466066,18,1,随手拍过大年啦！舞个民俗表演 ?蚌壳精，红红火火迎新春！随手拍#带着微博去旅行##武汉新闻##网友拍武汉##荆楚网##环球旅行体验师平台##荆楚网友看荆楚##美拍武汉##湖北旅游#
119,武汉·华中师范大学,3,0.883697,30.5199928,114.3552674,M_段段今天瘦了吗,0.0523365,0.947664,0,2,0,01月10日 08:47, , , ,2.931269894,10,1,武汉有点冷，今天去哪儿呢
120,武汉·琴台大剧院,5,0.997432,30.56357319,114.2536708,王天时clarinet,0.00115569,0.998844,0,2,0,01月10日 08:24, , , ,0.52938045,22,1,武汉！美好的夜晚。
121,武汉·金地雄楚1号,0,0.919161,30.49869731,114.3847887,水果硬糖wyw,0.0363775,0.963623,0,2,0,01月10日 09:59, , , ,2.931269894,10,1,武汉租房武汉合租康泰花园1290 独卫阳台房，无中介，压一付一，支持短租1～3个月，工程大学旁边，光谷附近  ???交通便利
122,武汉·金地雄楚1号,0,0.304508,30.49869731,114.3847887,水果硬糖wyw,0.687029,0.312971,0,0,0,01月10日 09:51, , , ,2.931269894,10,1,武汉租房武汉合租武汉租房 康卓新城1130阳台房，无中介，压一付一，武汉工程大学旁边，光谷附近  ???
123,武汉·金地雄楚1号,0,0.540845,30.49869731,114.3847887,水果硬糖wyw,0.20662,0.79338,0,2,0,01月10日 09:47, , , ,2.931269894,10,1,武汉租房武汉合租武汉租房 康卓新城890单间，无中介，压一付一，首月免租，光谷附近  ?交通便利
124,武汉·南国南湖城市广场,0,0.996653,30.50779534,114.319508,Lin丶羽贤,0.001506,0.998494,0,2,0,01月10日 09:47, , , ,2.931269894,10,1,南湖沃尔玛楼上，精装一居室～舒适宜人，随时可看，拎包入住，近地铁近商圈～年底租房季！快来咨询吧2武汉·南湖佰(港城店)#南湖#
125,武汉·金地雄楚1号,0,0.149269,30.49869731,114.3847887,水果硬糖wyw,0.382829,0.617171,0,2,0,01月10日 09:47, , , ,2.931269894,10,1,武汉租房 关西小区790单间，无中介，压一付一，包WiFi，首月免租，杨家湾地铁站附近  ??
126,武汉·武汉汉街万达广场,3,0.979285,30.55895836,114.332838,江宁充电宝,0.0093217,0.990678,0,2,0,01月10日 09:47,str,AwakenThePower,0,2.931269894,10,1,话说在旁边等着开门的时候，我听见有个老哥说专门坐高铁来武汉这家店拿色纸，实属鉴中鉴。#紫罗兰永恒花园#
127,武汉·金地雄楚1号,0,0.21136,30.49869731,114.3847887,水果硬糖wyw,0.539432,0.460568,0,1,0,01月10日 09:37, , , ,2.931269894,10,1,武汉租房 金地天悦960单间，无中介，压一付一，首月免租，中南民族大学旁边，光谷附近  ???
128,武汉·金地雄楚1号,0,0.900854,30.49869731,114.3847887,水果硬糖wyw,0.0446155,0.955384,0,2,0,01月10日 09:37, , , ,2.931269894,10,1,武汉租房武汉租房无中介武汉合租金地中心城860单间，无中介，压一付一，干净整洁，首月免租，武汉工程大学对面，光谷附近
129,武汉·武汉大学,0,0.999589,30.53980024,114.3609749,刘莉是兔子,0.000185122,0.999815,0,2,0,01月10日 09:30, , ,0,0.918169117,23,1,#兔子的生活日记#365日碎片每日生活感武汉约拍#寒假##约拍##摄影# 草莓融化在你身上?
130,武汉·后湖,0,0.998794,30.64924688,114.3013156,武汉施罗斯脊柱侧弯矫正,0.000542582,0.999457,0,2,0,01月10日 11:47, , , ,0.44466066,18,1,#今日施罗斯动态# 施罗斯SBP治疗师认证课程第三天，四名侧弯患者来到武汉工作室，加入到我们的课程之中，十二名治疗师学员们三人一组负责一名患者，正式开始了实战训练。学员们正在SBP认证治疗师导师龚少鹏导师的带领下进行患者现场诊断与分型。#脊柱侧弯保守治疗# ???
131,武汉·街道口,0,0.0640069,30.52650357,114.3537022,小呀嘛小二郎yyyyyy,0.578803,0.421197,0,0,0,01月10日 11:37, , ,0,2.931269894,10,1,#武汉下雪#怎么还不下雪
132,武汉·武汉华夏理工学院,0,0.965481,30.46928131,114.406385,AAAAAAA颖呀,0.0155336,0.984466,0,2,0,01月10日 11:27, , , ,2.931269894,10,1,7、8号线徐家棚，才华茗苑精装三居室大单间，仅需830#武汉租房##徐东租房#
133,武汉·木槿家婚礼,0,0.999808,30.52893477,114.3500863,木槿家婚礼,8.64E-05,0.999914,0,2,0,01月10日 11:18,str,mujinjia,0,2.931269894,10,1,# WEDDING 木槿家婚礼 / 轻定制婚礼品牌 #画得春山眉样好，百年有结是同心。一场香槟色的中国风婚礼让你感受沐浴在山水中的诗情画意。策划：@木槿家婚礼 主持：李梦晓摄影：@欢乐纪摄影 摄像：@壹肆电影工作室 #武汉婚礼# #中式婚礼#
134,武汉·木槿家婚礼,0,0.9999,30.52893477,114.3500863,木槿家婚礼,4.48E-05,0.999955,0,2,0,01月10日 11:09,str,mujinjia,0,2.931269894,10,1,# WEDDING 木槿家婚礼 / 轻定制婚礼品牌 #画得春山眉样好，百年有结是同心。一场香槟色的中国风婚礼让你感受沐浴在山水中的诗情画意。#武汉婚礼# #中式婚礼#
135,武汉·积玉桥,3,0.999981,30.57731693,114.3083211,李程ART,8.74E-06,0.999991,0,2,0,01月10日 11:09,str,LCART1991,0,0.918169117,23,1,清秀的小男孩素描#素描##画画##李程绘画##美术##武汉光影美术##武汉美术培训#
136,武汉·武汉市中心医院,1,0.854586,30.58359102,114.2894861,中华骨髓库湖北分库,0.0654362,0.934564,1,2,0,01月10日 11:09,str,hbzhangsheng,0,0.44466066,18,1,恩施90后无偿献血金奖获得者汪先生在武汉市中心医院血液科采集造血干细胞过程中，武汉血液中心成分献血科陈涵薇主任、护士谢晋、武汉多位成分献血者来看望慰问。
137,武汉·武汉长江二桥,0,0.936585,30.60815513,114.3151819,颠嗔疯,0.971463,0.0285368,0,0,0,01月10日 12:59, , ,江苏 常州,0.44466066,18,1,再见，武汉！湖南的辣椒???我回来了
138,武汉·平和打包厂旧址,1,0.670727,30.58470093,114.2922487,咕噜酱儿,0.148173,0.851827,1,2,0,01月10日 12:59, , ,0,0.44466066,18,1,???武汉租房 我想问下  有没有要租房子的  瑟瑟发抖
139,武汉·世界城光谷步行街,0,0.995896,30.50807763,114.3968903,米缇娅meteor,0.00184683,0.998153,0,2,0,01月10日 13:51, , ,湖北 武汉,2.931269894,10,1,本人爆米花，今天在武汉玩的嗨，昨天考完试。欧耶！带着我的小汤圆姐妹！
140,武汉·街道口,0,0.999923,30.52650357,114.3537022,拍吧自拍馆武汉,3.47E-05,0.999965,0,2,0,01月10日 13:51, , ,湖北 武汉,2.931269894,10,1,#个人写真##轻写真##摄影##武汉#
141,武汉·元银甲(武昌店),0,0.981283,30.58771522,114.3309569,大武汉美食排行榜,0.00842244,0.991578,0,2,0,01月10日 13:39, , ,湖北 武汉,2.931269894,10,1,#吃在武汉# 大众点评黑珍珠餐厅指南推出之际，湖北省烹饪酒店行业协会、武汉餐饮业协会隆重推出“武汉必吃餐厅”，亢龙太子酒轩花园店、湖锦酒楼国宴店、三五醇酒店、元银甲武昌江滩店、谢氏老金口王家湾店等夺得奖项。
142,武汉·积玉桥,0,0.997045,30.57731693,114.3083211,不正咖啡,0.00132981,0.99867,0,2,0,01月10日 13:31, , ,湖北 武汉,0.918169117,23,1,下午好呀，巧克力可颂积玉桥店供应哦！#不正咖啡##武汉精品咖啡##武汉咖啡##就这一刻#
143,武汉 2武汉,12,0.99808,30.59386784,114.2866731,ATTACK吴双东,0.000864164,0.999136,0,2,0,01月10日 13:21, , ,上海,0.44466066,18,1,See you tonight ??????@Q-danceOfficial #q-dance#
144,武汉·达美口腔,0,0.999891,30.59398804,114.2582667,达美口腔,4.89E-05,0.999951,0,2,0,01月10日 13:13,str,dameikouqiang,0,0.30871907,20,1,#武汉达美口腔##补牙# 最近都是等着整好牙齿过年系列蛀成这样看着好心疼时间紧迫，用这个临时牙过个年也棒棒哒
145,武汉·武汉工贸职业学院,0,0.9915,30.53174735,114.409643,拉风的念念,0.00382509,0.996175,0,2,0,01月10日 13:13, , ,湖北 武汉,2.931269894,10,1,武汉纺织大学2020级成人高考录取通知书陆续下发中没收到的学员请耐心等待一本院校专业齐全广东广西江西湖北欢迎跨区报考
146,武汉·卓刀泉,0,0.962314,30.51297434,114.3673752,淡若花逝岁月如歌_522,0.0169587,0.983041,0,2,0,01月10日 13:13, , ,湖北,2.931269894,10,1,每天看客户的好评，感觉真好[呲牙][呲牙]那位18岁的客户，辜经理已经结婚有娃了。#2019华晨宇火星演唱会# ，#看婚礼看出了阅兵的感觉#。找工作？光谷找工作！#(疑问)#，武汉找工作
147,武汉·武汉高铁站,1,0.992597,30.59386784,114.2866731,快乐人生就是好好学习天天追星,0.00333126,0.996669,0,2,0,01月10日 14:59, , ,0,0.44466066,18,1,南下之旅 越南越快乐 肉眼可见的增加的绿色和水 武汉高铁站非常奢华 我??了 我爱回家！
148,武汉·华中科技大学,0,0.858064,30.515377,114.4076895,名中有妳,0.0638711,0.936129,0,2,0,01月10日 14:59, , ,0,2.931269894,10,1,#享趣韩国吾玩出味# @韩国旅游发展局武汉办事处 我收到你寄给我的吾饮良品的炫彩手袋了，谢谢！我会以后每天都会坚持喝一杯吾饮良品的饮料，也会跟着小编更新的微博去探索并发现不一样的韩国
149,武汉·达拉斯医疗美容,0,0.991872,30.5682161,114.3030602,武汉达拉斯韩姐姐,0.00365734,0.996343,0,2,0,01月10日 14:51, , ,湖北,0.918169117,23,1,还记得这个姑娘吗？术后50天了，非常感恩，鼻子情况复杂，术后在武汉待到了拆线，每天来换药时还给我带水果，谢谢你，姑娘
150,武汉·许氏茶艺,0,0.992643,30.53594888,114.295568,武汉许氏茗理茶艺品有限公司,0.00331086,0.996689,0,2,0,01月10日 14:51,str,whxscy,0,0.918169117,23,1,?? 茶桌必备～水方[呲牙]#许氏茶艺?茶具##武汉·许氏茶艺茶具#
151,武汉·武汉老兵纹身,1,0.999482,30.57941653,114.2889257,兵哥_武汉老兵纹身,0.000233023,0.999767,0,2,0,01月10日 14:46,str,234031364,0,0.30871907,20,1,武汉刺青 分享一组动漫纹身#武汉纹身##彩色纹身图案##彩色纹身图案#
152,武汉·江欣苑,0,0.77415,30.53251294,114.2427052,记忆微氵炎忘,0.101633,0.898367,0,2,0,01月10日 14:46, , ,湖北 武汉,0.52938045,22,1,还没开始就结束了！@MD_摩登兄弟 提前欢迎来武汉！爱你哦！
153,武汉·宝通寺,0,0.998027,30.53420753,114.3352476,继字辈,0.000887746,0.999112,0,2,0,01月10日 14:35, , ,湖北 武汉,0.918169117,23,1,今日耳机里的歌是「北国」很适合下雨天。#带着微博去旅行#武汉
154,武汉·唐家墩,1,0.0935978,30.61638776,114.2649376,Tulip-tiffany,0.407881,0.592119,0,2,0,01月10日 14:30, , ,0,0.30871907,20,1,公务员求全职备考2020湖北省考的小伙伴互相监督，小姐姐已毕业5年，211小本，非全硕士在读。第一次考，已报粉笔线上班，希望一次上岸。坐标武汉（汉口）！  ???
155,武汉·万科锦程,2,0.999428,30.49916076,114.4011045,爱热闹的梵高先生,0.000257375,0.999743,0,2,0,01月10日 14:22, , ,湖北 武汉,2.931269894,10,1,武汉租房 拥有一个自己的小阳台就像拥有了四季的光景恰如其份的美好
156,武汉·港澳台风情街,0,0.999808,30.58788561,114.2885601,VISCUBECOFFEE,8.64E-05,0.999914,0,2,0,01月10日 14:22,str,scholarcoffee,0,0.44466066,18,1,冬天最幸福的事情之一来一口热腾腾的烤！红！薯！??#VISCUBE COFFEE##coffee vlog##武汉咖啡培训##武汉生活#
157,武汉·街道口,0,0.996716,30.52650357,114.3537022,武汉品茶鲜花派送,0.00147792,0.998522,4,2,0,01月10日 14:22, , ,湖北 武汉,2.931269894,10,1,#武汉约拍##武汉品茶# 天青色等烟雨，而我在等你武汉安排
158,武汉·街道口,0,0.999612,30.52650357,114.3537022,暗礁刺青_困树,0.000174773,0.999825,0,2,0,01月10日 14:13,str,joehillm,0,2.931269894,10,1,freehand小玩意，共4小时，最后一张是恢复大半年后#武汉纹身##纹身##暗黑纹身##blackwork#
159,武汉·江汉路,0,0.999978,30.5861812,114.2823964,画海娜的小姐姐,9.86E-06,0.99999,0,2,0,01月10日 15:59, , ,湖北 武汉,0.44466066,18,1,暖暖的海娜棕色很适合秋冬哦，跟节日也很搭呢~#手绘##武汉##海娜手绘##果酱画#
160,武汉·宝利金·中央荣御,0,0.99857,30.57999497,114.2879111,武汉怪咖纹身刺青,0.000643486,0.999357,0,2,0,01月10日 15:52, , ,青岛怪咖彩绘文化传播有限公司,0.30871907,20,1,我是一个在沙漠里顽强生存下来的仙人掌大叔[米奇比心][米奇比心]怪咖纹身刺青武汉刺青纹身武汉纹身刺青武汉#纹身超话##全球时尚纹身#
161,武汉·武汉火车站,0,0.985003,30.60937946,114.418856,2020运气爆表,0.00674864,0.993251,0,2,0,01月10日 15:52, , ,其他,2.931269894,10,1,—? ? 武汉金科城 ??— 别让漂泊成为阻挡爱的理由??为爱安家 让理想发生????9#约116-145㎡东方美宅??VIP：18942936085#武汉买房##武汉#
162,武汉·东湖风景区,2,0.999955,30.54583487,114.4004719,黄小小的旅行日记,2.01E-05,0.99998,0,2,0,01月10日 15:40, , ,0,0.918169117,23,1,#复古写真#复古写真| 婚纱写真| 武汉摄影?? 分享一组复古写真集服装很美、妆容闪闪bulingbuling? O绿洲
163,武汉·武汉市第一医院,9,0.892342,30.5745905,114.2666098,薯条必须要油炸,0.0484464,0.951554,0,2,0,01月10日 15:30, , ,湖北 武汉,0.410438256,21,1,一医院皮肤科今天还有10个号 需要复方sod熊果苷祛斑美白#复方sod熊果苷乳膏##武汉第一医院自制药膏##祛斑#
164,武汉·武汉华侨城欢乐谷,0,0.991029,30.59356291,114.3873746,爱走养生步,0.00403694,0.995963,0,2,0,01月10日 15:23, , ,0,2.931269894,10,1,爱走养生步(?°з°)-?就来武汉东湖
165,武汉·光谷资本大厦,0,0.886479,30.50663363,114.3946504,武汉市银行贷款-冉爽,0.0510842,0.948916,0,2,0,01月10日 15:23, , ,湖北,2.931269894,10,1,武汉乐活武汉财经快讯第七期湖北银行融资圆桌会进行中
166,武汉·街道口,0,0.99993,30.52650357,114.3537022,拍吧自拍馆武汉,3.15E-05,0.999968,0,2,0,01月10日 15:23, , ,湖北 武汉,2.931269894,10,1,『致人间的爱不移』#个人写真##闺蜜写真##情侣写真##摄影##武汉##武汉吃喝玩乐#
167,武汉·武汉火车站,13,0.85275,30.60937946,114.418856,来个仙贝嘛,0.933738,0.0662623,0,0,0,01月10日 15:23, , ,湖北 武汉,2.931269894,10,1,我信阳毛尖已打入武汉火车站内部要不是旁边都是卖湖北特产差点以为在信阳东站
168,武汉·华中师范大学,0,0.209468,30.5199928,114.3552674,高大鹏Elvis,0.64426,0.35574,0,0,0,01月10日 15:14, , ,湖北,2.931269894,10,1,在武汉没有败给夏天却败给了冬天
169,武汉·武汉保利广场,0,0.46194,30.49329574,114.4048459,朱迅程,0.242127,0.757873,0,2,0,01月10日 15:02, , ,湖北,2.931269894,10,1,世上最遥远的距离，不是生与死的距离，不是天各一方，而是我就站在你面前，你却不知道我爱你。武汉租房无中介武汉租房#武汉光谷租房##武汉租房大家帮##武汉租房无中介#武汉租房李白#武汉大学生租房##杜甫武汉租房#
170,武汉·街道口,0,0.959748,30.52650357,114.3537022,freelifev,0.0181133,0.981887,0,2,0,01月10日 16:58, , ,湖北,2.931269894,10,1,#武汉记录#有一起锻炼的吗  过年期间
171,武汉·武汉体育学院,3,0.821133,30.52277554,114.3730247,YF顾玉翎,0.0804903,0.91951,0,2,0,01月10日 16:48, , ,辽宁 大连,2.931269894,10,1,下雨天和足球更配2武汉·武汉体育学院
172,武汉·大智门啤酒屋,2,0.930792,30.59823091,114.2926906,武汉大智门啤酒屋,0.0311434,0.968857,2,2,0,01月10日 16:39, , ,湖北 武汉,0.44466066,18,1,#今日份元气#武汉西餐排行榜，评价榜，口味榜双第一! 你不来尝一下吗 O绿洲
173,武汉·金地雄楚1号,0,0.917339,30.49869731,114.3847887,lovelifewh,0.0371974,0.962803,0,2,0,01月10日 16:23, , ,湖北 武汉,2.931269894,10,1,还是喜欢家乡武汉！
174,武汉·琴台音乐厅,7,0.101142,30.5632055,114.2572079,武汉琴台音乐厅,0.404486,0.595514,1,2,0,01月10日 16:05,str,qtconcerthall,0,0.52938045,22,1,武汉琴台音乐厅 大家都进微信粉丝群了没？闹钟都设好没？反正我是轻松了不少  明天十点开票呀
175,武汉·汉兴街区,11,0.991919,30.63438723,114.2422108,王俊杰Juck,0.00363669,0.996363,1,2,0,01月10日 17:59, , ,湖北 武汉,0.30871907,20,1,O明天上午11点，请大家打开收音机收听FM105 .8楚天音乐广播频道，我将以本期嘉宾身份做客这档音乐节目！大家可以下载蜻蜓FM，搜索“楚天音乐广播”，我们O明天上午11点见哦??? 我是不请自来...王俊杰Juck#楚天音乐广播##音乐梦想##武汉生活##武汉身边事#
176,武汉·美林青城,0,0.967378,30.59568675,114.3488869,用户6467573318,0.0146799,0.98532,0,2,0,01月10日 17:48, , ,0,2.931269894,10,1,积玉桥旁 两房两厅 精装修 居家自住的房子 旁边就是长江 环境优美@武汉租房 @武昌租房 @积玉桥租房 #武汉一租公寓#
177,武汉·江滩,0,0.999671,30.58829655,114.2972908,树下抱猫,0.000148222,0.999852,0,2,0,01月10日 17:48,str,yurenfengjimmy,0,0.44466066,18,1,小的时候很喜欢听吱吱渣渣的老电影质感的胶片后来搬家之后家里的老物件也都不见了今天收到的这份礼物深得朕心#致自己##武汉生活#
178,武汉·楚河汉街,1,0.999246,30.55846603,114.33691,武汉街拍Show,0.000339145,0.999661,0,2,0,01月10日 18:50, , ,湖北 武汉,2.931269894,10,1,武汉街拍Show第660期小哥哥小姐姐好般配#武汉街拍##街拍##情侣穿搭#
179,武汉·江汉路,3,0.954167,30.5861812,114.2823964,谁在拿芒果毒我a,0.020625,0.979375,0,2,0,01月10日 18:50, , ,湖北 武汉,0.44466066,18,1,武汉美食陈赫火锅店打个卡
180,武汉·中南国际城A座,0,0.999982,30.53721037,114.3226962,MoonWhite婚纱,8.29E-06,0.999992,0,2,0,01月10日 18:36, , ,湖北,0.918169117,23,1,#穿着婚纱，嫁给爱情# 兰斐刺绣轻纱#武汉婚纱##婚纱礼服#
181,武汉·融科·天城3期,1,0.999123,30.59520986,114.2995562,blackrose0214,0.999605,0.00039492,0,0,0,01月10日 18:36, , ,湖北 武汉,0.44466066,18,1,从来没有哪个冬天这么寒冷过.发自骨头里的寒冷，怎么走都冷，做热疗Spa还是冷.再加上来自深渊的咳嗽，已经咳的我漏尿了！现在头痛欲裂，我不适合生活在武汉！
182,武汉·华中师范大学,0,0.741067,30.5199928,114.3552674,阿强爱吹风,0.11652,0.88348,0,2,0,01月10日 18:36, , , ,2.931269894,10,1,浪迹于武汉各高校。
183,武汉·楚河汉街,0,0.999426,30.55846603,114.33691,用户6467573318,0.000258339,0.999742,0,2,0,01月10日 18:29, , ,0,2.931269894,10,1,居家首选 自家居住房子 两室两厅 价格超实惠 地段好 东亭地铁旁 环境优美@武汉租房 @武昌租房 @东亭租房 #武汉一租公寓#
184,武汉·江汉路,4,0.667064,30.5861812,114.2823964,24FPSaint,0.149821,0.850179,0,2,0,01月10日 18:29, , ,0,0.44466066,18,1,还去啥长沙啊 武汉有汉水楚茶（泰好喝惹
185,武汉·徐东大街,0,0.984652,30.57885319,114.356581,用户6467573318,0.00690654,0.993093,0,2,0,01月10日 18:19, , ,0,0.918169117,23,1,雄楚大道高架桥 精装两室一厅 百瑞景 丁字桥 可短租 环境优美 价格实惠 无中介 @武汉租房 @武昌租房  @雄楚租房 #武汉一租公寓#
186,武汉·徐东大街,0,0.87209,30.57885319,114.356581,用户6467573318,0.0575597,0.94244,0,2,0,01月10日 18:19, , ,0,0.918169117,23,1,转租 不是中介 东亭地铁50米 精装小两室 地处优越 交通便利 价格实惠@武汉租房 @武昌租房 @东亭租房 #武汉一租公寓#
187,武汉·西班牙风情街,0,0.32502,30.5054386,114.3997022,kion耀阳666,0.696259,0.303741,0,0,0,01月10日 18:19, , ,0,2.931269894,10,1,武汉光谷，库存2020一起暴富，脱单
188,武汉·石门峰名人公园,12,0.719988,30.51610976,114.4767659,北大陈浩武,0.126005,0.873995,2,2,0,01月10日 18:12,str,xsmw0618,0,2.931269894,10,1,在武汉石门峰公墓看望董辅礽先生。
189,武汉·汉口站,0,0.99479,30.62153636,114.24898,Xiong熊熊呀,0.0023445,0.997656,0,2,0,01月10日 18:06, , ,0,0.30871907,20,1,终于到武汉了
190,武汉·武汉音乐学院,0,0.972935,30.53909656,114.2860465,zangirl,0.0121791,0.987821,0,2,0,01月10日 19:30, , , ,0.918169117,23,1,武汉音乐学院研究生艺术团公益音乐会第43期，我在这里  ???  ???  ???
191,武汉·徐东大街,8,0.963563,30.57885319,114.356581,武汉租房小徐,0.0163965,0.983604,0,2,0,01月10日 19:30, , , ,0.918169117,23,1,武汉租房汪家墩地铁口，鹏程花园，目前有全空3居室，在岳家嘴上班的朋友或者徐东附近的朋友都可以过来康康哈
192,武汉·武汉音乐学院,0,0.97759,30.53909656,114.2860465,zangirl,0.0100846,0.989915,0,2,0,01月10日 19:30, , , ,0.918169117,23,1,2019年12月23日武汉音乐学院研究生艺术团公益音乐会第42期，我在这里  ???
193,武汉·武汉欢乐谷,5,0.997692,30.59356291,114.3873746,武汉欢乐谷,0.00103879,0.998961,51,2,0,01月10日 19:17,str,whhappyvalley,0,2.931269894,10,1,叫醒了仙女.惊扰了时光周末约闺蜜，来打卡！#武汉欢乐谷奇幻灯光节# photo by @秋野六千
194,武汉·江汉路,0,0.999105,30.5861812,114.2823964,明天图库,0.00040277,0.999597,0,2,0,01月10日 19:17, , ,湖北,0.44466066,18,1,化妆明天刺青#武汉纹身##明天图库#
195,武汉·东湖风景区,0,0.699339,30.54583487,114.4004719,胡萦萦sandy,0.135298,0.864702,0,2,0,01月10日 19:07, , ,湖北 武汉,0.918169117,23,1,腊月十六，武汉实时温度2℃，雨夹雪
196,武汉·江汉路,9,0.800989,30.5861812,114.2823964,小艾今天不困,0.0895548,0.910445,0,2,0,01月10日 19:00, , ,0,0.44466066,18,1,武汉的正宗湛江烤生蚝真的可以和湛江的正宗长沙臭豆腐拼一拼，今天下飞机真的冻死了
197,武汉·东湖风景区,50,0.978603,30.54583487,114.4004719,B倪萍,0.990371,0.00962864,1,0,0,01月10日 21:52, , ,广东 广州,0.918169117,23,1,再也不来武汉了#武汉下雪#
198,武汉·金地雄楚1号,0,0.936244,30.49869731,114.3847887,oneoneonejmjm,0.0286903,0.97131,0,2,0,01月10日 21:42, , ,湖北 武汉,2.931269894,10,1,武汉大学生勤宫兼学
199,武汉·汉阳大道,6,0.0210622,30.56618928,114.2001944,接着酷下去,0.559478,0.440522,0,0,0,01月10日 21:23, , ,海外,0.52938045,22,1,又见武汉
200,武汉·融科天城,0,0.934344,30.60121405,114.2942021,zhima981001,0.970455,0.0295451,0,0,0,01月10日 22:59, , ,湖北,0.44466066,18,1,武汉文化底蕴还是不够，真不能比
201,武汉·江汉路,2,0.40858,30.5861812,114.2823964,吃吃吃货菌,0.266139,0.733861,0,2,0,01月10日 22:59, , ,湖北 武汉,0.44466066,18,1,捂被窝，捂被窝。太冷了，冬天没有小太阳完全受不了，在武汉，冬天就想念夏天，到了夏天就想念冬天。
202,武汉·沙湖公园,0,0.984002,30.56631224,114.332866,戴天力摄影,0.00719909,0.992801,0,2,0,01月10日 22:59,str,uc241351269,0,2.931269894,10,1,梦幻水乡沙湖洲    武汉沙湖夜景
203,武汉 2武汉,0,0,30.59386784,114.2866731,阿灿水彩,0,0,0,-1,0,01月10日 22:59, , ,0,0.44466066,18,1,???????? ???? ??????????
204,武汉·武汉长江工商学院,0,0.99959,30.46132965,114.2687279,武汉工商学院,0.000184401,0.999816,0,2,0,01月10日 22:59,str,whcjgs,0,2.931269894,10,1,#晚安工商#每个地方都有属于自己的天气，每一个人都有属于自己的命运。希望同学们能把自己家乡的天气发到官微上哦，让我们一起看看明天中国各地的冷暖。晚安！武汉明天（1月11日）-2～5°C 多云转晴
205,武汉·英特小区,0,0.999813,30.57810369,114.3515843,肉肉零肉,8.40E-05,0.999916,0,2,0,01月10日 22:48, , ,其他,2.931269894,10,1,摩登兄弟#刘宇宁0108生日快乐# 好帅，我现在只要是听到你提到（武汉）俩字儿，就兴奋！
206,武汉·武昌火车站,0,0.949286,30.53088598,114.3121545,暮夏下啊夏,0.0228214,0.977179,0,2,0,01月10日 22:48, , ,其他,0.918169117,23,1,我要从武汉回到大广东的怀抱啦啦～
207,武汉·光谷万科中心,0,0.999326,30.49910776,114.4009753,武汉平成日语aiko老师,0.00030345,0.999697,0,2,0,01月10日 22:21, , ,湖北 武汉,2.931269894,10,1,本周日的J.TEST考试：??今天是可以打印准考证的最后一天了！请大家记得打印准考证哦！尤其是7月生们[嘿哈]#武汉高校圈子#日本留学#日本留学扫盲##日语##寒假##日语培训#
208,武汉·积玉桥,0,0.999985,30.57731693,114.3083211,乐活舒心绘画艺术空间,6.94E-06,0.999993,0,2,0,01月10日 22:21, , ,武汉乐艺绘文化艺术有限公司,0.918169117,23,1,??分享?工笔画????真的美??#武汉零基础学画画##武汉零基础学绘画##武汉零基础学油画##武汉画室##遇见艺术##手绘##工笔##国画#
209,武汉·武汉大学,0,0.448196,30.53980024,114.3609749,吉法师驾到,0.248312,0.751688,0,2,0,01月10日 22:21, , ,0,0.918169117,23,1,在武汉这三年可能是我人生中最沮丧的几年了，我考研的时候都没有这么沮丧过，那时候虽然辛苦，但是我心里全部都是对未来的希望，可能在武汉，我实在看不到。
210,武汉·武汉安华酒店,7,0.919814,30.53575532,114.3106741,十个五花,0.0360838,0.963916,0,2,0,01月10日 22:07, , ,山东,0.918169117,23,1,江城武汉 第一天阴  #武汉旅行#
211,武汉·汉口火车站,0,0.996476,30.62153636,114.24898,楚小姐的花,0.00158586,0.998414,0,2,0,01月10日 23:58, , ,湖北 武汉,0.30871907,20,1,武汉鲜花速递#武汉鲜花# 团年饭布置
212,点的武汉,0,0.818531,30.59520986,114.2995562,天平小组,0.0816609,0.918339,0,2,0,01月10日 23:58, , ,0,0.44466066,18,1,晚上1
213,武汉·江汉路,0,0.99996,30.5861812,114.2823964,千玺刺青,1.78E-05,0.999982,0,2,0,01月10日 23:58, , ,其他,0.44466066,18,1,#水彩纹身##武汉纹身##纹身手稿##纹身# 生活就是一遍遍的枯燥重复和偶尔的新鲜感
214,武汉·古德寺,1,0.997299,30.62101988,114.3020674,你说你爱我爱我什么说,0.00121557,0.998784,0,2,0,01月10日 23:58, , ,其他,0.44466066,18,1,武汉古德寺，周末愉快呀
215,武汉·江滩,0,0.999319,30.58829655,114.2972908,A武汉_八方刺青,0.000306229,0.999694,0,2,0,01月10日 23:37, , ,湖北 武汉,0.44466066,18,1,#文身##纹身手稿##花臂##武汉纹身##武汉八方刺青# 我恢复了原来的模样 不渣也不爱 清醒又迷茫 时而开心时而抑郁 却始终温柔
216,武汉·华中科技大学,0,0.963741,30.515377,114.4076895,Ducky澄澄,0.0163167,0.983683,0,2,0,01月10日 23:37, , ,湖北 武汉,2.931269894,10,1,武汉，真的好冷啊，我要回深圳??
217,武汉·武汉葛洲坝大酒店,11,0.990128,30.57897279,114.2460254,月湖桥下的3路电车,0.00444226,0.995558,2,2,0,01月10日 23:24, , ,湖北 武汉,0.410438256,21,1,2020首次乘坐武汉公交意外的坐到508路大金龙混动2012年的大金龙混动必将成为武汉公交的经典之一
218,武汉·楚河汉街,0,0.907781,30.55846603,114.33691,77的自戕乐园,0.0414985,0.958502,0,2,0,01月11日 00:59, , ,湖北 武汉,2.931269894,10,1,今日份的快乐??武汉886春天再见啦
219,武汉·武汉盛帆职业篮球,0,0.961858,30.59386784,114.2866731,武汉盛帆职业篮球俱乐部,0.017164,0.982836,2,2,0,01月11日 00:59, , ,湖北 武汉,0.44466066,18,1,为了武汉盛帆女篮更好的发展，武汉盛帆女篮顾问、原中国女篮国家队主力-邵婷婷即日起接任球队领队一职。相信在李昕指导与邵婷婷领队的齐力合作下，武汉盛帆女篮定将走向更加光辉的明天。
220,武汉·武汉盛帆职业篮球,0,0.951777,30.59386784,114.2866731,武汉盛帆职业篮球俱乐部,0.0217003,0.9783,0,2,0,01月11日 00:59, , ,湖北 武汉,0.44466066,18,1,武汉盛帆女篮主教练博格丹·布杰因私人原因，无法继续履行主教练职责，俱乐部经研究决定，聘请原中国女篮国家队主力、原国青女篮主教练-李昕指导担任球队主教练。热烈欢迎李昕指导加入武汉盛帆！接下来，一起加油！
221,武汉·宝通寺,0,0.957683,30.53420753,114.3352476,武汉整租房15802741743201909,0.0190426,0.980957,0,2,0,01月11日 00:14, , ,0,0.918169117,23,1,武汉租房武昌区地铁2号线宝通寺300米         武锅社区两室一厅一卫整租1750月
222,武汉·华中农业大学,34,0.997977,30.47779527,114.3517885,权叔,0.000910248,0.99909,4,2,0,01月11日 00:14, , ,0,2.931269894,10,1,#武汉最轻松好玩的年会#今晚年会，抽中了四个奖品，老韩煸鸡的提货券，也太给力了吧，好多张哟！想要吗？#大吉大利今晚煸鸡#
223,武汉·永红小区B区,0,0.910133,30.59520986,114.2995562,武汉整租房15802741743201909,0.0404403,0.95956,0,2,0,01月11日 00:03, , ,0,0.44466066,18,1,武汉租房永红小区地铁3号线兴业路1.1公里        永红小区两室一厅一卫整租1650月
224,武汉·金地雄楚1号,0,0.951649,30.49869731,114.3847887,粉红色的Poepoe,0.021758,0.978242,0,2,0,01月11日 00:03, , ,浙江,2.931269894,10,1,武汉第三天古德寺—汉口江滩芦苇荡—日本海军陆战队军营旧址—武汉科学技术馆—江汉关博物馆—张之洞与武汉博物馆—武汉渡轮晴川码头—光谷步行街
225,武汉·金地天悦睿府,1,0.990347,30.49685522,114.3824201,苏晨lo,0.00434405,0.995656,0,2,0,01月11日 02:56, , ,0,2.931269894,10,1,#武汉记录#说的挺对，也挺扎心的
226,武汉·江汉路,0,0.993645,30.5861812,114.2823964,我陪风走五万里,0.00285977,0.99714,0,2,0,01月11日 02:56, , ,0,0.44466066,18,1,起飞的大脸没有九宫格会不舒服#武汉约拍##随手拍#
227,武汉·武昌工学院,1,0.985702,30.55620412,114.3105429,Humum111,0.00643405,0.993566,0,2,0,01月11日 02:56, , ,其他,0.918169117,23,1,#武汉记录#温柔留给你??
228,武汉·万景国际,0,0.999268,30.60756322,114.2573033,化妆师-菲林,0.000329446,0.999671,0,2,0,01月11日 05:58, , ,湖北 武汉,0.30871907,20,1,#武汉新娘跟妆造型##武汉新娘跟妆# 早安
229,武汉·卓刀泉,0,0.999963,30.51297434,114.3673752,武汉芙蓉轩汉服摄影体验馆,1.65E-05,0.999983,0,2,0,01月11日 08:50, , ,湖北 武汉,2.931269894,10,1,临近过年了，有年会表演需要宫廷礼服婚纱彩纱旗袍汉服等可以到店来租，你想要的我们都有。#摄影##武汉约拍##汉服##婚礼策划##汉服体验##随手拍##摄影#
230,武汉·武汉高铁站,0,0.437971,30.59386784,114.2866731,December的Girl,0.252913,0.747087,0,2,0,01月11日 08:40, , ,0,0.44466066,18,1,库存武汉的夏日与武汉的冬日说再见
231,武汉·金地雄楚1号,0,0.0623009,30.49869731,114.3847887,水果硬糖wyw,0.421965,0.578035,0,2,0,01月11日 09:59, , ,其他,2.931269894,10,1,武汉租房 康卓新城主卧独阳，压一付0，杨家湾地铁站旁边  ???武汉租房
232,武汉·武汉天地,2,0.999672,30.60979638,114.3059468,白驹过一,0.000147678,0.999852,1,2,0,01月11日 10:59, , ,湖北,0.44466066,18,1,秋季显白发色，质感发色加法式刘海。武汉#武汉##发型#
233,武汉·汉口火车站,0,0.916614,30.62153636,114.24898,你是谁家的小人鹅,0.0375239,0.962476,0,2,0,01月11日 10:59, , ,0,0.30871907,20,1,武汉租房 1400/???1号线轻轨 黄浦路站 下楼就是轻轨小区名：汉飞青年城 整租一室一厅大武汉最繁华中心地段 房价贵的一批！#武汉租房#杜甫找房#武汉租房大家帮##武汉租房无中介##大武汉租房##杜甫武汉租房#
234,武汉·兰陵·大公馆,0,0.999508,30.61346243,114.2832934,武汉租好房,0.00022123,0.999779,0,2,0,01月11日 10:32, , ,上海,0.44466066,18,1,武汉租房武汉租房武汉合租#武汉合租##武汉租房# 今日好房推荐:越秀国际金融汇一期朝南主卧业主定制黑色大衣柜低调奢华上档次签约立减666元服务费哦年前租房年后住不要错过最后一波优惠啦
235,武汉·街道口,0,0.742515,30.52650357,114.3537022,zy20007,0.115868,0.884132,0,2,0,01月11日 10:22, , ,0,2.931269894,10,1,#武汉地震# 2020.1.11 上午9:36 左右，坐标湖北武汉洪山区街道口，大楼五楼，感觉到地震了。
236,武汉·武汉老兵纹身,0,0.997151,30.57941653,114.2889257,兵哥_武汉老兵纹身,0.00128181,0.998718,0,2,0,01月11日 10:22,str,234031364,0,0.30871907,20,1,武汉刺青 黑灰风格动漫纹身，有没有你喜欢的？#纹身图案##小清新纹身##黑灰纹身#
237,武汉·世界城光谷步行街,7,0.515357,30.50807763,114.3968903,YF顾玉翎,0.524232,0.475768,0,1,0,01月11日 10:22, , ,辽宁 大连,2.931269894,10,1,耶 教育不挂科2武汉·武汉体育学院2武汉·光谷
238,武汉·尚隆地球村,6,0.830012,30.56142744,114.308307,武汉吃了冇,0.0764944,0.923506,1,2,0,01月11日 10:13,str,wuhan777,0,0.918169117,23,1,#武汉生活# 虚服！！！周末也要过早哟
239,武汉·金地雄楚1号,1,0.873856,30.49869731,114.3847887,姚文彬336699,0.0567648,0.943235,0,2,0,01月11日 10:13, , ,湖北 武汉,2.931269894,10,1,南湖锦城 整租1室1厅1卫1厨 面积40 免中介费 包物业 租金年付1500/月#武汉租房##光谷租房#武汉租房
240,武汉·金地雄楚1号,1,0.727447,30.49869731,114.3847887,水果硬糖wyw,0.877351,0.122649,0,0,0,01月11日 10:05, , ,其他,2.931269894,10,1,武汉租房 金地雄楚一号1190单间，无中介，压一付一，首月免租，武汉工程大学对面，光谷附近，出小区就是公交  ???武汉租房武汉租房无中介
241,武汉·昕瑞摄影,1,0.998277,30.57672227,114.3388869,昕瑞摄影,0.000775435,0.999225,1,2,0,01月11日 11:56,str,xinruisheying,0,2.931269894,10,1,★武汉约拍#少女写真##客片分享##写真##Ray studio｜花絮絮# 花絮有点狠哦╰??╮@DS网红明星学院 模卡拍摄??
242,武汉·东湖风景区,0,0.998418,30.54583487,114.4004719,大萍美妞,0.000711771,0.999288,0,2,0,01月11日 11:56, , ,湖北 武汉,0.918169117,23,1,我猜一会又有朋友来说，我想去武汉工作了?? 〔好房推荐〕滨湖名邸·?? 朝南阳台采光好，适合在阳台看书，养花，小憩
243,武汉·保利·心语,1,0.999984,30.52618771,114.3379749,艺凡·美术,7.06E-06,0.999993,0,2,0,01月11日 11:56, , ,0,2.931269894,10,1,好久没画油画了！#油画#油画#画画##绘画##武汉学油画##武汉零基础学油画#
244,武汉·湖北工业大学,65,0.96967,30.4832079,114.3032878,伍十貳赫兹-,0.986351,0.0136485,0,0,0,01月11日 11:43, , ,0,2.931269894,10,1,不给武汉男人丢脸
245,武汉·武汉大学,17,0.993344,30.53980024,114.3609749,江户川丸亲,0.00299539,0.997005,0,2,0,01月11日 11:33, , ,0,0.918169117,23,1,存档一些在武汉的快乐??
246,武汉·MASS美发沙龙,1,0.999972,30.48297067,114.4053998,很皮的西瓜哟,1.27E-05,0.999987,0,2,0,01月11日 11:33, , ,其他,2.931269894,10,1,蜜茶#发型##武汉最好的美发店#发型#美发#
247,武汉·万松园,0,0.999308,30.59276378,114.261884,MIACHIC生活馆,0.000311494,0.999689,0,2,0,01月11日 11:02,str,doubledreamshop,0,0.30871907,20,1,?人间?芭?比????????????????【?招牌D?翘睫毛】?年前?預约?电话?? 027-62437059#武汉美睫##武汉美甲美睫#
248,武汉·武汉天地,0,0.996484,30.60979638,114.3059468,高小葵的Miko,0.0015823,0.998418,0,2,0,01月11日 12:59, , ,湖北 武汉,0.44466066,18,1,#武汉吃喝玩乐# 可惜了，之前好吃的牛蛙下架了不过整体还是ok的，环境好比海底捞安静多了
249,武汉·武铁佳苑,0,0.633489,30.59136701,114.3467844,墨生cy,0.16493,0.83507,0,2,0,01月11日 12:25, , ,安徽 宣城,2.931269894,10,1,2武汉·武铁佳苑，#武汉记录#回家倒计时 匆匆忙忙一年 就这样结束 ??
250,武汉·华中科技大学,5,0.908702,30.515377,114.4076895,林北的林,0.0410842,0.958916,0,2,0,01月11日 12:04, , ,浙江 温州,2.931269894,10,1,??：@廿廿爱吃烤冷面 ??：我@华中科技大学 新光电顶楼！#武汉约拍##互免约拍# ???
251,武汉·江汉路,0,0.976641,30.5861812,114.2823964,武汉AsaHair冠希,0.0105116,0.989488,0,2,0,01月11日 12:04, , ,湖北 武汉,0.44466066,18,1,羊毛卷买家秀#武汉剪发##武汉接发##武汉染发##武汉染发哪里好#
252,武汉·凯德1818,0,0.982065,30.55539861,114.3344842,武汉Miro·Salon-Four,0.00807078,0.991929,0,2,0,01月11日 12:04, , ,湖北,0.918169117,23,1,记得给头发定期补色???????武汉发型设计
253,武汉·江汉路,0,0.92108,30.5861812,114.2823964,武汉CoCo纯种猫舍被饿死的铲屎官,0.0355138,0.964486,0,2,0,01月11日 14:00, , ,湖北,0.44466066,18,1,丹尼尔越来越美了，只是美貌和个性成了鲜明的对比，真是个霸王，路霸x饭霸，说好的布偶猫都是温文尔雅的，你就是套的一个布偶猫美丽的外壳的混世魔王，我要实名揭穿你的真面目，不能让你再蛊惑人心#武汉布偶猫#
254,345 @武汉市房管局,0,0.999944,30.54807359,114.2603396,-Stefanie_sun-,0.999975,2.52E-05,0,0,0,01月11日 13:51, , ,0,0.52938045,22,1,一个物业辣鸡到这个程度也是没谁了。武汉天鼎源简直是辣鸡中的战斗机。水房漏水都浸我家墙面，反映三周了还在那磨洋工。物业经理跑来搞一句你看我们在干活别说我们没干活啊~你倒是不要挖一个砖放一个礼拜倒是解决问题啊。快过年了真是恼火@经视直播官方微博 @武汉市长热线1
255,武汉·江汉路,0,0.999464,30.5861812,114.2823964,ZE·老凯,0.00024134,0.999759,0,2,0,01月11日 13:51, , ,0,0.44466066,18,1,原创稿子更新#武汉纹身##武汉刺青##oldschool##Oldschool##oldschooltattoo##武汉oldschool纹身##椰子树纹身##武汉纹身设计##武汉纹身穿孔#
256,武汉·江汉路,0,0.996105,30.5861812,114.2823964,武汉写真艺术照,0.00175275,0.998247,0,2,0,01月11日 13:44, , ,湖北,0.44466066,18,1,#武汉艺术照##武汉写真##武汉约拍# 文溪社写真馆原创今日份客片珍珠女孩彭彭??????
257,武汉·港澳台风情街,0,0.994722,30.58788561,114.2885601,VISCUBECOFFEE,0.00237523,0.997625,0,2,0,01月11日 13:44,str,scholarcoffee,0,0.44466066,18,1,你品，你细品#VISCUBE COFFEE##coffee vlog##武汉咖啡培训##武汉探店#
258,武汉·兰陵·大公馆,0,0.999632,30.61346243,114.2832934,武汉租房小能手,0.000165628,0.999834,0,2,0,01月11日 13:44, , ,其他,0.44466066,18,1,武汉租房武汉找工作实习租房#带着微博去旅行#在佛祖岭地铁站附近，当代国际城，房间是一个非常大的阳台，采光通风都非常好
259,武汉·武汉市第三医院,0,0.343817,30.54317364,114.2976319,整形美容医生杨艳清,0.295283,0.704717,0,2,0,01月11日 13:35, , ,湖北 武汉,0.918169117,23,1,美容季，忙碌的武汉市第三医院整形外科门诊。医生们排队等候手术。
260,武汉·武汉万达中心,0,0.998652,30.56662055,114.3032724,张恩硕Richard,0.00060648,0.999393,0,2,0,01月11日 13:35, , ,湖北,0.918169117,23,1,恭喜中信保诚【萌鼠送福亲子DIY】活动圆满结束祝愿大家新年快乐万事大吉#武汉##2020加油##热点##鼠年#
261,武汉·大华南湖公园世家,0,0.996626,30.49622843,114.3290097,JuiceDoll布偶猫舍,0.00151842,0.998482,0,2,0,01月11日 13:16, , ,其他,2.931269894,10,1,今日封面猫郎球球。在线找家长呐～#武汉布偶猫舍##武汉布偶猫#布偶猫萌宠#布偶猫#
262,武汉·小川料理,3,0.996362,30.58024321,114.2879838,陈叶子c,0.00163694,0.998363,0,2,0,01月11日 13:16, , ,湖北 武汉,0.30871907,20,1,#武汉# Hi~这里是叶子?? #今天吃什么##叶子带你吃喝玩乐# 承接上一条微博小川料理之特写图依次是冰皮榴莲手握?? 鹅肝手握?? 招牌浅草炸鸡?? 咖喱乌冬面??
263,武汉·南湖时尚城,0,0.998182,30.48037929,114.3787054,商栗子,0.000818055,0.999182,0,2,0,01月11日 13:01, , , ,2.931269894,10,1,#冒个泡# 有年会要租礼服的小姐姐嘛，主持人正装，演出服。古装汉服都有噶#年会服装##服装租赁##武汉服装租赁#  ???
264,武汉·中南财经政法大学,0,0.999361,30.53575837,114.3072915,一枳·摄影,0.000287517,0.999712,1,2,0,01月11日 14:59, , , ,0.918169117,23,1,#少女写真#2019年部分客片#武汉约拍#武汉约拍#圣诞##武汉摄影##武汉摄影工作室##少女写真#少女写真  ???  ???
265,武汉·万锦江城,0,0.997906,30.65159757,114.3098801,你怕是个皮瓜,0.000942341,0.999058,0,2,0,01月11日 14:59, , , ,0.44466066,18,1,[呲牙]万锦江城，阳台房，[红包]860[奸笑]后湖大道，兴业路，直达香港路动作要帅，下手要快，超高性价比#武汉租房#
266,武汉·武汉体育学院,0,0.98965,30.52277554,114.3730247,周汏清_,0.00465748,0.995342,0,2,0,01月11日 14:59,str,ZDQ0707,0,2.931269894,10,1,淘宝原片出??#武汉约拍#
267,武汉·大洋百货中山店,0,0.993516,30.56346673,114.2030884,gmcarrie,0.00291787,0.997082,0,2,0,01月11日 14:41, , , ,0.52938045,22,1,??今天吃了个满意的午餐武汉美食
268,武汉·武昌江滩,0,0.181688,30.561326,114.2966523,用户3399353406,0.368241,0.63176,0,2,0,01月11日 14:41, , , ,0.918169117,23,1,武汉市从中华路码头到武汉关码头轮渡船上的公共厕所从去年开始关闭快一年了，到今天还不能使用，给过江的旅客方便时带来不便。希望轮渡公司能早点恢复轮渡上的公共厕所。
269,武汉·武汉高铁站,0,0.946779,30.59386784,114.2866731,三个荸荠多少钱,0.0239496,0.97605,0,2,0,01月11日 14:33, , , ,0.44466066,18,1,武汉才是真的冷 小朋友家的行李箱好洋气
270,武汉·华中科技大学,0,0.975325,30.515377,114.4076895,武汉租房小能手,0.0111039,0.988896,0,2,0,01月11日 14:33, , , ,2.931269894,10,1,武汉租房华中科技大学旁边的小区  康园小区  周边配套设施齐全   家具家电齐全  无中介费用武汉合租武汉找工作租房实习#遇见美好##租房#
271,武汉·归元寺,0,0.853291,30.54787544,114.2538372,四戒居士,0.0660191,0.933981,0,2,0,01月11日 14:26, , , ,0.52938045,22,1,武汉归元禅寺能恩法师受信众礼请在“归元讲堂”开示:《观世音菩萨普门品》（十一）
272,武汉·楚河汉街,0,0.999452,30.55846603,114.33691,MATTINO马蒂诺西装定制,0.000246825,0.999753,0,2,0,01月11日 14:26, , , ,2.931269894,10,1,冷冬里的暖调#西装##武汉西装高级定制#
273,武汉·杨家湾·保利华都,0,0.941204,30.51085426,114.3785891,武汉租房小能手,0.026458,0.973542,0,2,0,01月11日 14:26, , , ,2.931269894,10,1,武汉租房小区在杨家湾地铁站，出了小区就是地铁站，周边配套设施齐全，还有大型的菜市场武汉租房武汉合租武汉找工作租房实习保利华都
274,武汉·汉商武展购物中心,3,0.843397,30.58330307,114.267841,海灵-琴,0.0704713,0.929529,0,2,0,01月11日 14:14, , , ,0.30871907,20,1,还是回来开心同样的菜深圳要23，武汉只要13，感觉赚到了Shopping 咯
275,武汉·武汉火车站,1,0.999909,30.60937946,114.418856,不大想改但又不想浪费这次机会,0.999959,4.10E-05,0,0,0,01月11日 14:14, , , ,2.931269894,10,1,大家千万不要在武汉火车站买书亦烧仙草不仅比正常价位贵3元而且料特别少且不满杯宛若多半杯，大杯的料还没我外卖点的中杯的料多我买书亦，不就是想吃料吗是温的，我跟店员讲烫一点，结果还是温的差评 #书亦烧仙草# @书亦烧仙草
276,武汉·昕瑞摄影,1,0.998085,30.57672227,114.3388869,昕瑞摄影,0.000861604,0.999138,2,2,0,01月11日 15:59,str,xinruisheying,0,2.931269894,10,1,武汉约拍#少女写真##Ray studio｜客片分享##清新# 仙女下凡有木有
277,武汉·武汉工程大学,0,0.985506,30.50447978,114.3849841,唐老鸭租房,0.00652249,0.993478,0,2,0,01月11日 15:59, , , ,2.931269894,10,1,金地本座精装朝南一居室2200包物业，有视频#光谷租房##新年心愿#武汉租房蔡维泽#傻子與白痴夜长梦少##小米9##武汉艾妮漫展##cos正片#杜甫找房绝对领域JK#光谷整租房源#
278,武汉·平和打包厂旧址,0,0.999468,30.58470093,114.2922487,列那的小屋,0.000239185,0.999761,0,2,0,01月11日 15:59,str,fox1208,0,0.44466066,18,1,#带着微博去武汉# 青岛路打卡，平和打包厂～有趣，很喜欢这张完美的对角线，这里风景独好！@乐活武汉 @新浪湖北
279,武汉·黄鹤楼,9,0.764549,30.54552584,114.1896237,果与菲de奇幻旅程,0.105953,0.894047,0,2,0,01月11日 15:47,str,ggff11ff,0,0.52938045,22,1,黄鹤楼....武汉市长江大桥....2020.1.11
280,武汉·江汉路,9,0.164892,30.5861812,114.2823964,玩樂美食情报站,0.624201,0.375799,0,0,0,01月11日 15:47, , ,0,0.44466066,18,1,霈霖探店【城市英雄电玩】在不懈努力下终于夹到得战利品喔呕呕武汉吃喝玩乐#武汉爆料#
281,武汉·丁字桥,5,0.997276,30.53637457,114.3302215,喜梨妹,0.0012256,0.998774,0,2,0,01月11日 16:52, , ,0,0.918169117,23,1,#武汉记录#自己一个人去打针 没有人能体会身同感受 有时候觉得自己一个人挺好的 当扛不住的时候才发现 天一直没亮过 人生太苦 需要一点点甜我们就很开心 只能自己买最爱的肉松小贝满足自己
282,武汉·桃花岛,0,0.973811,30.61062361,114.3142326,江城胡大爷,0.988215,0.0117852,0,0,0,01月11日 16:52, , ,0,0.44466066,18,1,尼玛看个纪录片也能看到桃花岛，楚国八百年武汉人贼多
283,武汉·世界城广场,0,0.539706,30.50850865,114.399696,Yuannnn__,0.792867,0.207132,0,0,0,01月11日 17:59, , , ,2.931269894,10,1,塔蒂亚意式餐厅味道都一般 意外的是饮料 昨夜星空看着听非主流的名字还挺好喝的武汉吃货
284,武汉·武汉玉丰国际酒店,0,0.0455289,30.55858052,114.3359359,姐姐要努力阿,0.429512,0.570488,0,2,0,01月11日 17:59, , , ,2.931269894,10,1,武汉大学中南医院神经外科年会！
285,武汉·江汉路步行商业街,0,0.959197,30.58605471,114.2825757,用户6197564526,0.0183611,0.981639,0,2,0,01月11日 17:46, , ,0,0.44466066,18,1,大武汉 汉街好热闹
286,武汉·楚河汉街,0,0.967876,30.55846603,114.33691,昆仑决壮格搏击俱乐部,0.0144559,0.985544,0,2,0,01月11日 17:46, , ,0,2.931269894,10,1,武汉壮格战队陈伟出战拳力联盟
287,武汉·武汉高铁站,0,0.858823,30.59386784,114.2866731,武昌首义学院,0.0635297,0.93647,0,2,0,01月11日 17:16,str,wcsyxy,0,0.44466066,18,1,#首义微推##五问武汉不明原因肺炎#，专家解读↓↓↓转发周知！ ???（via：人民日报）
288,武汉·汉口火车站,1,0.999115,30.62153636,114.24898,SpiritFunzze_程,0.000398381,0.999602,0,2,0,01月11日 17:04, , ,0,0.30871907,20,1,#春运##武汉##摄影##随手拍# 有困难就找心连心服务台！红马甲的小哥哥们     超！ 极！ 暖！·抓 住 瞬 间 ·  2020.01.11（挑战连续三十天每天一万步 吃完饭睡个觉 九点夜班去检票）2武汉·汉口站
289,武汉·常青公园,1,0.964953,30.62274112,114.2325688,盛师导Oscardodd,0.0157712,0.984229,0,2,0,01月11日 18:59,str,doddsheng,0,0.30871907,20,1,假期体能不能停????冬季不减肥春季徒伤悲???#武汉##健身##42天自律有me#
290,武汉·金地自在城,0,0.99403,30.60934717,114.3809182,我的名字就是叫阳明呢,0.00268646,0.997314,0,2,0,01月11日 18:59, , ,0,2.931269894,10,1,今天在武汉火车站做了一天志愿者服务，晚上发现自己中奖了#宝宝的少女心#
291,武汉·司门口,0,0.99998,30.54946088,114.294989,武汉_八方刺青工作室,8.81E-06,0.999991,0,2,0,01月11日 18:27,str,FaithTATTOO,0,0.918169117,23,1,世界上只有一种英雄主义那就是看透了生活的本质依旧热爱生活#纹身手稿##武汉八方刺青##武汉纹身#
292,武汉·武汉市第六医院,0,0.999827,30.60249221,114.2848811,Doublecj,0.999922,7.78E-05,0,0,0,01月11日 18:18, , , ,0.44466066,18,1,要不是协和同济人太多 谁会去垃圾到不行的六医院 经过学生朋友以及我个人的经历 六医院应该是武汉至少江岸区最差的医院 没有之一 不倒闭天理难容啊
293,武汉·湖北省公安厅,24,0.985807,30.52021025,114.328333,权叔,0.00638698,0.993613,0,2,0,01月11日 18:18, , ,0,2.931269894,10,1,#武汉最轻松好玩的年会# 南湖是个神奇的地方，有人懂吗？！？
294,武汉·城开·汉口秀园,2,0.737765,30.63959232,114.2576514,K1KOYANG,0.881994,0.118006,0,0,0,01月11日 20:59, , , ,0.30871907,20,1,南方归来的小杨可能要被冷死在武汉前二十多年的抗寒记忆彻底下线......想去惠州养老
295,武汉·江汉路,0,0.955296,30.5861812,114.2823964,老山妖in,0.0201168,0.979883,0,2,0,01月11日 20:47, , , ,0.44466066,18,1,Freehand * 鼻钉 ??（饰品平行贴合表皮）#武汉穿孔##泰妍 鼻钉##鼻钉#
296,武汉·武汉汉街万达广场,0,0.861612,30.55895836,114.332838,陈小锁cds,0.0622748,0.937725,0,2,0,01月11日 20:26, , , ,2.931269894,10,1,2020武汉第一餐
297,武汉·武铁佳苑,0,0.92204,30.59136701,114.3467844,武汉整租房15802741743201909,0.0350819,0.964918,0,2,0,01月11日 21:59, , ,0,2.931269894,10,1,武汉租房洪山区地铁8号线汪家墩500米        武铁佳苑小区两室一厅一卫整租1800月
298,武汉·徐东大街,0,0.973728,30.57885319,114.356581,阿福香港优才理财,0.0118226,0.988177,0,2,0,01月11日 21:48,str,hoohhk,0,0.918169117,23,1,武汉东湖行吟阁景区之夜
299,武汉·武汉大学,3,0.760708,30.53980024,114.3609749,juejue齐步走,0.107682,0.892318,0,2,0,01月11日 21:48, , , ,0.918169117,23,1,最近武汉有流行感冒 朋友给我维C药 增强抵抗力不多给 每日一颗 用纸包好这份恩情 哈哈哈哈哈哈哈哈哈 淳朴
300,武汉·江汉路,0,0.998069,30.5861812,114.2823964,是阿丽丽丽丽呀,0.000868695,0.999131,0,2,0,01月11日 21:48, , ,0,0.44466066,18,1,??旧时光。#手机摄影#
301,武汉·东湖梨园,0,0.318786,30.57611001,114.3696042,瑜生一个源宝宝,0.693454,0.306546,0,0,0,01月11日 21:48, , , ,0.918169117,23,1,#灯展##自拍#2武汉·东湖梨园美女说话只说一半，不知道为。
302,武汉·武汉大学,1,0.84846,30.53980024,114.3609749,周周leson,0.068193,0.931807,0,2,0,01月11日 21:48, , ,0,0.918169117,23,1,今夜武汉，十五的月亮十七圆。
303,武汉·街道口,0,0.419424,30.52650357,114.3537022,小于今天学习了吗,0.738741,0.261259,0,0,0,01月11日 21:48, , ,0,2.931269894,10,1,说真的 武汉周黑鸭规模太大了
304,武汉·江汉路,4,0.900383,30.5861812,114.2823964,依洛w,0.0448277,0.955172,2,2,0,01月11日 22:58, , , ,0.44466066,18,1,五更琉璃#艾妮动漫游戏展# 返个图，其实很早就修好了，但是忘了发组织@艾妮动漫游戏展 @武汉漫展吧_官博
305,武汉·华中农业大学,1,0.983758,30.47779527,114.3517885,阿拉清神灯,0.00730892,0.992691,0,2,0,01月11日 22:45, , , ,2.931269894,10,1,#武汉互免约拍##武汉约拍# “明月装饰了你的窗子，你装饰了别人的梦。”：@318文清摄影工作室  @武汉高校约拍菌 武汉约拍  ???  ???
306,武汉·汉口站,0,0.909998,30.62153636,114.24898,M_m卡布丁,0.0405011,0.959499,0,2,0,01月11日 22:35, , , ,0.30871907,20,1,和武汉重逢。
307,武汉·越秀·星汇云锦,0,0.982267,30.57072323,114.2445112,大武汉美食排行榜,0.00798011,0.99202,0,2,0,01月11日 22:35, , , ,0.410438256,21,1,#城市味蕾战##吃在武汉# 孤独美食家与粤北的山溪鱼，在硚口维港这家小小的顺意食坊，品尽地道粤菜。
308,武汉·奇趣蛋壳公园,0,0.684316,30.59520986,114.2995562,阿蛋姑娘_,0.142058,0.857942,0,2,0,01月11日 22:23, , , ,0.44466066,18,1,??奇趣蛋??2武汉·奇趣蛋壳公园
309,武汉·港澳台风情街,0,0.758694,30.58788561,114.2885601,草重倩希,0.891412,0.108587,0,0,0,01月11日 22:17, , , ,0.44466066,18,1,武汉的天气真的是让宝宝受不了。整个秋冬鼻子就没几天是好的。如果可以，一定选择逃离这里！哪里适合人类居住？我要用下半辈子去寻找！
310,武汉·欢乐大道欢乐星城,0,0.951087,30.59475084,114.3783009,武汉整租房15802741743201909,0.0220111,0.977989,0,2,0,01月11日 22:06, , ,0,2.931269894,10,1,武汉租房洪山区地铁4号线园林路1.6公里          欢乐星城小区三室一厅一卫整租2050月
311,武汉·黄鹤楼,1,0.98708,30.54552584,114.1896237,留言089,0.00581392,0.994186,0,2,0,01月11日 23:59, , , ,0.52938045,22,1,武汉一日游
312,武汉·江汉路,0,0.998964,30.5861812,114.2823964,武汉老兵纹身-兵哥,0.000466008,0.999534,0,2,0,01月11日 23:59,str,wuhanwenshen,0,0.44466066,18,1,武汉刺青小腿天使，#武汉老兵纹身# 全程单针完工#天使纹身# ，耗时大约3小时……
313,武汉·武昌江滩,0,0.953083,30.561326,114.2966523,ChuckZH,0.0211127,0.978887,0,2,0,01月12日 01:59, , , ,0.918169117,23,1,??武汉???
314,武汉·雄楚国际大酒店,0,0.586551,30.5125219,114.3557889,大火花火红大555,0.186052,0.813948,0,2,0,01月12日 01:59, , , ,2.931269894,10,1,大，硬，来，，要，武汉
315,武汉·宝利金·中央荣御,0,0.999897,30.57999497,114.2879111,BalsamPearrrrrrr,4.66E-05,0.999953,0,2,0,01月12日 01:35, , , ,0.30871907,20,1,年前扎个喜庆点的#Newschool纹身##武汉纹身##纹身##刺青##武汉刺青#
316,武汉·华中师大一附中,0,0.999876,30.45610987,114.3855458,上官猪猪奇,5.58E-05,0.999944,0,2,0,01月12日 01:35, , , ,2.931269894,10,1,有武汉的妹妹嘛，出来评论下，第一次玩微博知道了女孩子太多秘密，我一直以为女孩子都那么单纯，没想到跟我们男孩子一样也会想要xsh，有的女孩子又可爱又sao，我简直太爱了
317,武汉·木兰仙味酒店,0,0.992591,30.58716085,114.4329048,面条太硬嚼不动_,0.996666,0.00333393,0,0,0,01月12日 01:35, , ,0,2.931269894,10,1,备课到现在，武汉的冬天真的是一个冷，酒店只有空调还时而冷风，时而热风，无奈让阿姨加床被子，趴在被窝里，写着逐字稿，只为顺利通过考试，为自己祈祷吧??????
318,武汉·幸福时代,12,0.983752,30.65721233,114.3079261,旅途-微笑,0.00731173,0.992688,1,2,0,01月12日 03:54, , , ,0.44466066,18,1,武汉租房武汉租房#武汉租房##武汉合租#武汉租房1月份求租，合租，转租的可以在底下评论哦 ? ???
319,武汉·科技馆路公交站,0,0.798269,30.62483641,114.2964414,Product名家,0.0907789,0.909221,0,2,0,01月12日 05:58, , ,0,0.44466066,18,1,凌晨五点的武汉
320,武汉·武商广场,0,0.756346,30.58281362,114.2645521,抗城市污染茶树油,0.890356,0.109644,0,0,0,01月12日 05:58, , , ,0.30871907,20,1,武汉开始冷了，凌晨45点已经扛不住了，真的冷。
321,武汉·江滩,4,0.989925,30.58829655,114.2972908,安鸣饰品,0.995466,0.00453382,1,0,0,01月12日 07:59, , ,0,0.44466066,18,1,早上的武汉真冷，打死都起不来
322,武汉·武汉马哥孛罗酒店,2,0.98067,30.58784298,114.296442,春韵江南13407156222,0.00869829,0.991302,0,2,0,01月12日 07:35, , , ,0.44466066,18,1,武汉商会的年会比去年更浓烈、更精彩。
323,武汉·唐家墩,1,0.999965,30.61638776,114.2649376,白领生活规划整理,1.60E-05,0.999984,1,2,0,01月12日 08:48, , ,湖北 武汉,0.30871907,20,1,新年之初，白领整理收纳工作室 走进武汉市巾帼家政示范实训基地，为中级家政培训的学员们送上深受大家喜爱整理收纳课程。专业舒适的学习环境，设备完善的实训场地，加上整理收纳师的倾情传授，让学员们第一次碰撞收纳就收获满满。学员们有福了！@规划整理塾
324,武汉·茶以知人,0,0.927496,30.52788376,114.353163,_DALAN_,0.0326266,0.967373,1,2,0,01月12日 08:48, , ,湖北 武汉,2.931269894,10,1,店名：茶以知人地址：珞珈胡同那边#武汉美食#
325,武汉·京韵怡园,2,0.606195,30.52868761,114.350672,_DALAN_,0.48031,0.51969,0,1,0,01月12日 08:48, , ,湖北 武汉,2.931269894,10,1,店名：京韵怡园地址：街道口银泰创意城性价比不高#武汉美食#
326,武汉·沙湖公园,0,0.984002,30.56631224,114.332866,戴天力摄影,0.00719909,0.992801,0,2,0,01月12日 08:37,str,uc241351269,0,2.931269894,10,1,梦幻水乡沙湖洲    武汉沙湖夜景  ???
327,武汉·武昌火车站,4,0.976841,30.53088598,114.3121545,叫我大萌子就好,0.0104213,0.989579,0,2,0,01月12日 08:37, , ,0,0.918169117,23,1,武汉奇观（终于！到啦！）
328,武汉·武汉高铁站,0,0.991886,30.59386784,114.2866731,开石Reborn,0.00365148,0.996349,0,2,0,01月12日 08:18, , ,湖北 武汉,0.44466066,18,1,终于看到了武汉的太阳
329,武汉·武汉大学,6,0.974503,30.53980024,114.3609749,很一般的辉宝,0.0114737,0.988526,0,2,0,01月12日 09:59, , ,湖北 武汉,0.918169117,23,1,小蓝杯开启雾蒙蒙的一天100+大洋买的自拍杆到了，还不错好久不跑步了，武汉天气不错，坚持打卡假甜女孩??也需要小惊喜如果没有的话，不会生气，不会失落，只是没那么喜欢了而已
330,武汉·华发未来荟,2,0.984495,30.51569012,114.2119424,趣活武汉,0.00697736,0.993023,1,2,0,01月12日 09:59, , ,湖北 武汉,0.52938045,22,1,#武汉大雾# #武汉打卡季# 今天的武汉的大雾朋友说感觉自己过着神仙生活(图来自朋友圈)@武汉同城 @武汉身边事
331,武汉·武汉大学中南医院,0,0.998815,30.55545495,114.3471516,中南整形郭亮,0.000533363,0.999467,0,2,0,01月12日 09:59,str,myglister,0,0.918169117,23,1,今天的武汉是仙境#武汉#
332,武汉·武汉长江大桥,20,0.857513,30.55488796,114.277972,Z维系,0.0641192,0.935881,0,2,0,01月12日 10:59, , ,浙江 杭州,0.52938045,22,1,来武汉的第三天有些旅行还没开始就快要结束了珍惜
333,武汉·康卓新城,0,0.969731,30.49988802,114.378778,亮锅锅Samlang,0.0136211,0.986379,0,2,0,01月12日 10:42,str,234930809,0,2.931269894,10,1,今日??#武汉大雾#
334,武汉·光谷天地,0,0.764543,30.47892653,114.4076088,武汉比心动物医院,0.105956,0.894044,0,2,0,01月12日 10:42, , ,湖北 武汉,2.931269894,10,1,今天大雾??????我要“拨开云雾见天日”#武汉大雾#
335,武汉·世纪中心,2,0.973615,30.57487675,114.3164431,黄银清-,0.0118733,0.988127,0,2,0,01月12日 10:42,str,bobby027,0,0.918169117,23,1,2020武汉垂直马拉松，在武汉世纪中心，签到去晚了，给我发了件XXXXL的衣服。43层楼，1400多台阶，手脚并用，一口气爬完，成绩7分钟整。
336,武汉·DRAC东风雷诺,2,0.685674,30.56190755,114.1480224,请叫我fbb先生,0.141447,0.858553,0,2,0,01月12日 10:36, , ,湖北 武汉,0.52938045,22,1,武汉每天不一样武汉只有大雾没有雪
337,武汉·融科天城,0,0.999668,30.60121405,114.2942021,武汉晶美牙医隐形正畸中心,0.000149261,0.999851,0,2,0,01月12日 10:36, , ,湖北,0.44466066,18,1,#诊间日记# 【隐适美初戴】开始隐适美初戴的小男生好好加油吧好好刷牙噢#武汉牙齿矫正##武汉隐适美牙齿矫正#
338,武汉·世界城光谷步行街,0,0.99998,30.50807763,114.3968903,商周第一神幻美男伯邑考,8.95E-06,0.999991,0,2,0,01月12日 10:30, , ,湖北 黄冈,2.931269894,10,1,今年刘德华武汉演唱会一定要去，  宇宙无敌帅炸天   永远的男神刘德华先生
339,武汉·佳兆业金域天下,0,0.825982,30.48339815,114.2863106,BH不是逗逼,0.078308,0.921692,0,2,0,01月12日 10:16, , ,湖北 武汉,2.931269894,10,1,武汉起了大雾，大家注意安全。2武汉
340,武汉·武汉洲际酒店,0,0.999567,30.50765372,114.23994,胶囊_dou,0.00019493,0.999805,0,2,0,01月12日 10:10, , ,0,0.52938045,22,1,今日婚礼手机预告??#武汉婚礼##婚礼#
341,武汉·徐东大街,2,0.998521,30.57885319,114.356581,视界有限--安晋之,0.000665516,0.999335,0,2,0,01月12日 11:59,str,ysajz,0,0.918169117,23,1,快乐摄影人汉正街韩国馆#去旅行##武汉生活#
342,武汉·六渡桥,0,0.986389,30.57875989,114.2781912,学历提升专四专八代报名人力资源,0.993875,0.00612472,0,0,0,01月12日 11:59, , ,0,0.30871907,20,1,教资面试 非武汉户?口？无武汉?市居?住证？大一大二?学生？想在?武汉参加考?试的[怄火][怄火]赶?紧提交资料，?解决审?核问?题！费用便宜，倒计时！！！
343,武汉·六渡桥,1,0.291678,30.57875989,114.2781912,学历提升专四专八代报名人力资源,0.318745,0.681255,0,2,0,01月12日 11:59, , ,0,0.30871907,20,1,非武汉户?口？无武汉?市居?住证？大一大二?学生？想在?武汉参加考?试的[怄火][怄火]赶?紧提交资料，?解决审?核问?题！费用便宜，倒计时！！！#教资#教资面试#教资面试##教师资格证笔试##教师资格证面试#
344,武汉·万松园,0,0.999155,30.59276378,114.261884,MIACHIC生活馆,0.000380121,0.99962,0,2,0,01月12日 11:43,str,doubledreamshop,0,0.30871907,20,1,今日客片??金色不等于华丽也可以是仙气满满??最近美甲预约特别满，宝宝们一定要提前预约噢MIA CHIC NAIL.#武汉美甲美睫#
345,武汉·名士1号,18,0.393441,30.50860124,114.3355997,你要是唠扭我可就不困了,0.727049,0.272951,0,0,0,01月12日 11:43, , ,0,2.931269894,10,1,武汉租房 佰港城沃尔玛 街道口 建安街地铁口 出门就是公交车站 附近有维佳创意大厦 维佳点点大厦 创意天地 星空时代 理工大 湖工大  月租仅960！！！！三室 空着两间 目前只住了一位小姐姐 ！！！
346,武汉·积玉桥,1,0.71346,30.57731693,114.3083211,不正咖啡,0.128943,0.871057,0,2,0,01月12日 11:30, , ,湖北 武汉,0.918169117,23,1,经常有人问我黄油海盐卷今天烤了没？现在我可以有自信的说：今天烤了！烤了！烤了！嗯，重要的事情说三遍～来吃吧#不正咖啡##武汉精品咖啡##武汉咖啡##就这一刻#
347,武汉·帝斯曼国际中心,2,0.99751,30.53817206,114.3241811,2020运气爆表,0.00112055,0.998879,0,2,0,01月12日 11:20, , ,其他,0.918169117,23,1,武汉租房，出租，买房，卖房，找链家。【品质保障】【国民链家】#武汉买房##武汉##武汉租房##武汉租房买房卖房##自如租房##黄轩#  ???
348,武汉·首义小区,2,0.99751,30.53791169,114.3017069,2020运气爆表,0.00112055,0.998879,0,2,0,01月12日 11:20, , ,其他,0.918169117,23,1,武汉租房，出租，买房，卖房，找链家。【品质保障】【国民链家】#武汉买房##武汉##武汉租房##武汉租房买房卖房##自如租房##黄轩#
349,武汉·华中师范大学,2,0.884957,30.5199928,114.3552674,日横心间,0.0517695,0.948231,0,2,0,01月12日 11:20, , ,湖北 武汉,2.931269894,10,1,哈哈哈，第一次在武汉看见DD，居然还是自家门口
350,武汉·螃蟹岬[地铁站],3,0.99667,30.55644598,114.3133196,武汉租房小能手,0.00149847,0.998501,0,2,0,01月12日 11:20, , ,其他,0.918169117,23,1,武汉租房恋爱的小窝  一室一厅  螃蟹岬附近  空间很大家具家电齐全  武汉找工作实习#大学生活#
351,武汉·汉商武展购物中心,1,0.988004,30.58330307,114.267841,武汉美妆,0.00539833,0.994602,0,2,0,01月12日 11:11,str,hgbaoliao,0,0.30871907,20,1,武汉地铁上偶遇一男女，一男人说我帮你提东西吧，刚刚一听挺好，但是也没见男人动手，为什么很多人都是这样，手口不一说到没有做到。细节就能注定成败。=========美丽女人一定要化妆=========同样的付出一定会得到好的回报，爱美是女人的天性。
352,武汉·丁字桥,9,0.984577,30.53637457,114.3302215,#NAME?,0.00694019,0.99306,1,2,0,01月12日 12:59, , ,0,0.918169117,23,1,武汉的古德寺～
353,武汉·丽华苑,0,0.987783,30.59784775,114.3577036,武汉襄阳高端外圈安排,0.00549768,0.994502,0,2,0,01月12日 12:59, , ,湖北 武汉,2.931269894,10,1,武汉 早安
354,武汉·入涵舍摄影工作室,0,0.999496,30.52487562,114.3402067,入涵舍,0.00022659,0.999773,1,2,0,01月12日 12:48, , ,湖北 武汉,2.931269894,10,1,武汉约拍武汉写真 ??????：@哎呦不错哦han ??：@入涵舍 （可场地出租）#武汉摄影工作室##武汉摄影棚##武汉摄影师##武汉拍照地推荐# ???#武汉探店# ??? ???#少女写真# ???
355,武汉·江滩,0,0.996923,30.58829655,114.2972908,A武汉_八方刺青,0.00138449,0.998616,0,2,0,01月12日 12:48, , ,湖北 武汉,0.44466066,18,1,#武汉八方刺青##文身##纹身手稿# 我恢复了原来的模样 不渣也不爱 清醒又迷茫 时而开心时而抑郁 却始终温柔
356,武汉·王家湾中央生活区,1,0.990844,30.5638815,114.1990912,Jason魏先森,0.00412017,0.99588,0,2,0,01月12日 12:39, , ,湖北 武汉,0.52938045,22,1,武汉租房 @超话社区 在武汉商务区 中南路 汉街上班的精英白领们，来汉阳王家湾租房吧！地铁3/4号线直达，这里是王家湾商圈，N多大型购物中心。汉阳区政府扶持，人才公寓，租金7折，还能享受免押金，甚至0押金。
357,武汉·时尚欧洲,0,0.943606,30.59318143,114.3420478,整形医生吴闯,0.974623,0.0253773,0,0,0,01月12日 12:28, , ,湖北,2.931269894,10,1,整形医生#整形医生吴闯# 注射生长因子安全吗？@武汉市第一医院 #生长因子#
358,武汉·武汉大学人民医院,4,0.164506,30.53766061,114.2939246,柴米油盐酱醋茶啊丶,0.375972,0.624028,0,2,0,01月12日 12:28, , ,湖北,0.918169117,23,1,问一下武汉有啥好玩好吃的
359,武汉·江滩,6,0.899763,30.58829655,114.2972908,热热阿,0.954893,0.0451069,1,0,0,01月12日 12:28, , ,0,0.44466066,18,1,昏暗的武汉
360,武汉·江汉路,0,0.993943,30.5861812,114.2823964,千玺刺青,0.00272546,0.997275,0,2,0,01月12日 12:17, , ,其他,0.44466066,18,1,#武汉纹身# 今期作品
361,武汉·江汉路,0,0.999976,30.5861812,114.2823964,千玺刺青,1.06E-05,0.999989,0,2,0,01月12日 12:17, , ,其他,0.44466066,18,1,#武汉纹身##手臂纹身##纹身手稿# 世界上只有一种英雄主义那就是看透了生活的本质依旧热爱生活
362,武汉·江汉路,0,0.999264,30.5861812,114.2823964,千玺刺青,0.000331031,0.999669,0,2,0,01月12日 12:17, , ,其他,0.44466066,18,1,#武汉纹身##水彩纹身##纹身手稿##纹身# 长日尽处，你站在我的面前，在暮色四合的桨声灯影里，你将看到我的伤痕，知道我曾经受伤，曾经痊愈。
363,武汉·徐东大街,1,0.996856,30.57885319,114.356581,视界有限--安晋之,0.00141491,0.998585,0,2,0,01月12日 12:06,str,ysajz,0,0.918169117,23,1,去旅行汉正街打货快乐摄影人#武汉生活#
364,武汉·武汉市图书馆,0,0.993269,30.62240631,114.359478,南方有乔木向北,0.00302906,0.996971,0,2,0,01月12日 13:58, , ,0,0.721320639,19,1,#武汉不明原因肺炎导致1人死亡#江汉路依旧熙熙攘攘，武广世贸人潮如织，交通，生活没有受到任何影响，唯一的影响就是单位每天要量体温，发烧了要上报。武汉，很好~
365,武汉·楚河汉街,0,0.940556,30.55846603,114.33691,武汉雪菲咖啡馆,0.0267498,0.97325,0,2,0,01月12日 13:58, , , ,2.931269894,10,1,核点生豆库存，给大家发最新的豆单，计划要烘的豆子。需要加单的宝宝，这两天都可以春节期间在武汉，接受约与被约，重点是: 提前！#W.Y.C.Lab##汉秀剧场对面的3005#
366,武汉·武汉工程大学,0,0.999201,30.50447978,114.3849841,baijingting510139,0.000359369,0.999641,0,2,0,01月12日 13:58, , ,安徽 马鞍山,2.931269894,10,1,#冬日的光与影#第一次绿洲 武汉 O绿洲
367,武汉·花园道,0,0.999967,30.58474436,114.2802019,李天翊instyle,1.47E-05,0.999985,0,2,0,01月12日 13:41, , ,湖北,0.30871907,20,1,长发剪短啦 告别了千篇一律的自然微卷造型偏卷一点的短发卷发造型 很有日系风格在家也是特别的好打理，只需吹半干打一点摩丝或者有一点保湿定型指数的 造型就完成啦 手残党无需担心打理问题俏皮 可爱 很有辨识度的一款短发分享给大家哦#武汉短发##武汉烫发#武汉染发
368,武汉·老屋家常菜,0,0.119871,30.58819198,114.2942865,馨哈哈会放臭屁,0.396058,0.603942,0,2,0,01月12日 13:41, , ,0,0.44466066,18,1,武汉会是归宿吗
369,武汉·华中师范大学,1,0.757419,30.5199928,114.3552674,用户6361134156,0.109162,0.890838,0,2,0,01月12日 13:41, , ,0,2.931269894,10,1,武汉身边事
370,武汉·时尚欧洲,0,0.91818,30.59318143,114.3420478,整形医生吴闯,0.504091,0.495909,0,1,0,01月12日 13:32, , ,湖北,2.931269894,10,1,整形医生#整形医生吴闯# 线雕面部提升什么年龄人做比较合适呢？@武汉市第一医院 #线雕#
371,武汉·空军预警学院,2,0.969889,30.6248033,114.2938861,喻智学A,0.01355,0.98645,0,2,0,01月12日 13:19, , ,湖北,0.44466066,18,1,《永远的非洲》喻惠平影像特展开幕式随拍（展出地址：湖北省武汉市江岸区惠济路3号? ?卓尔美术馆展出时间：2020.01.11-02.10）
372,武汉·街道口,2,0.998618,30.52650357,114.3537022,等悦色溫柔·,0.00062173,0.999378,1,2,0,01月12日 13:19, , ,湖北 武汉,2.931269894,10,1,武汉探店?? HAlo CAFE关于冬天里那些温暖的事比如来杯奥利奥奶茶??很适合小情侣/小姐妹约会 下午茶 闲聊很惬意
373,武汉·武汉长江大桥,0,0.992996,30.55488796,114.277972,说走就走的旅行bot,0.00315195,0.996848,0,2,0,01月12日 13:05,str,pyfbest,0,0.52938045,22,1,#你好 世界#雾中武汉  如梦如幻 O绿洲
374,武汉·江汉路,0,0.999935,30.5861812,114.2823964,一点甜_甜品工作室_武汉,2.93E-05,0.999971,0,2,0,01月12日 13:05, , ,湖北 武汉,0.44466066,18,1,??新年抱抱桶??接受预定ing...抱抱桶集合了6种精心挑选的小甜品～美味也美腻～武汉#武汉私人订制蛋糕##武汉定制蛋糕##武汉私房蛋糕#武汉美食武汉美食攻略#武汉甜品#蛋糕ins
375,武汉·武汉老兵纹身店,0,0.991169,30.57941653,114.2889257,武汉老兵纹身,0.00397384,0.996026,0,2,0,01月12日 14:59,str,911121010,0,0.30871907,20,1,这个部位纹身还挺酷的，有没有敢尝试的武汉纹身#纹身#
376,武汉·港澳台风情街,0,0.964497,30.58788561,114.2885601,VISCUBECOFFEE,0.0159763,0.984024,0,2,0,01月12日 14:59,str,scholarcoffee,0,0.44466066,18,1,春节期间营业时间和放假时间??大家注意不要跑空啦～#VISCUBE COFFEE##COFFEE VLOG# #武汉咖啡培训##武汉探店#
377,武汉·木槿家婚礼,0,0.998868,30.52893477,114.3500863,木槿家婚礼,0.000509356,0.999491,0,2,0,01月12日 14:45,str,mujinjia,0,2.931269894,10,1,# WEDDING 木槿家婚礼 / 轻定制婚礼品牌 #你笑起来真好看??像春天的花一样?策划：木槿家婚礼主持：刘松摄影：@Young新锐摄影 摄像：影#武汉婚礼# #碧桂园酒店#
378,武汉·木槿家婚礼,0,0.999566,30.52893477,114.3500863,木槿家婚礼,0.00019541,0.999805,0,2,0,01月12日 14:45,str,mujinjia,0,2.931269894,10,1,# WEDDING 木槿家婚礼 / 轻定制婚礼品牌 #你笑起来真好看??像春天的花一样?#武汉婚礼# #碧桂园酒店#
379,武汉·三叶儿童口腔,0,0.983088,30.59520986,114.2995562,三叶武汉存济诊所,0.00761025,0.99239,0,2,0,01月12日 14:45, , ,北京三叶儿童口腔诊所有限公司,0.44466066,18,1,?课程预告：1月12号时间：今天晚上7: 30将由三叶武汉存济诊所三叶儿童口腔王盼医生，在金粉群里分享《牙外伤怎么办？》科普欢迎大家在线收听??  想要进群听课的家长，请联系我们哟～我们诊所的医生都会不定期轮流给大家科普！欢迎大家关注我们哦。
380,武汉·江汉路,2,0.94836,30.5861812,114.2823964,HelloBaBY-F,0.0232379,0.976762,0,2,0,01月12日 14:36, , ,0,0.44466066,18,1,在武汉的第一天！冲冲冲
381,武汉·宝通寺,0,0.894598,30.53420753,114.3352476,四戒居士,0.0474308,0.952569,0,2,0,01月12日 14:29, , ,湖北 武汉,0.918169117,23,1,武汉宝通禅寺谈心学佛讲座，恭请宝通禅寺纯善法师慈悲开示:《佛说无量寿经》（四十二）。
382,武汉·汉口火车站,3,0.999924,30.62153636,114.24898,EdwardKull,3.40E-05,0.999966,0,2,0,01月12日 14:29, , ,湖北 襄阳,0.30871907,20,1,表白全世界最好的男朋友留校的杜龙霏坚持把我送到武汉杜龙霏送我回家的第三个年头嘿嘿o(∩_∩)o开心开心??
383,武汉·丁字桥,3,0.993656,30.53637457,114.3302215,福兌,0.00285504,0.997145,3,2,0,01月12日 14:16,str,207387888,0,0.918169117,23,1,雪后武当，宛若仙境。@武当山旅游局 @武-當-君 @中国国家地理 @湖北省文化和旅游厅 @十堰市旅游局官方微博 @武汉市文化和旅游局
384,武汉·武汉老兵纹身,0,0.994507,30.57941653,114.2889257,兵哥_武汉老兵纹身,0.002472,0.997528,0,2,0,01月12日 14:16,str,234031364,0,0.30871907,20,1,武汉刺青 超写实动物纹身素材#武汉刺青##纹身素材##黑灰纹身#
385,武汉·江汉路,0,0.950288,30.5861812,114.2823964,武汉柒月健康,0.0223705,0.977629,0,2,0,01月12日 14:16,str,73ivf,0,0.44466066,18,1,#柒月健康泰国试管婴儿##武汉试管婴儿# 【柒月健康爱心妈妈篇】一大波鼠??宝宝正在赶来的路上…知否知否，应是2020，一家几口？鼠于你的一切好运（孕）都会来
386,武汉·长江二桥芦苇地,0,0.825638,30.5682286,114.2017485,王山泉V,0.078463,0.921537,0,2,0,01月12日 14:16,str,imassage1206,0,0.52938045,22,1,武汉江滩的芦苇刚刚被收割，这种被叫做荻的植物无需播种，只用收割
387,武汉·东湖风景区,5,0.999555,30.54583487,114.4004719,武汉白鱀豚保护基金会,0.000200334,0.9998,2,2,0,01月12日 14:04, , ,湖北 武汉,0.918169117,23,1,今天是“淇淇”到白鱀豚馆的40周年。最早一批研究白鱀豚，以及与”淇淇”生活过的学者们聚集在武汉白鱀豚馆。分享他们和白鱀豚的温暖故事，请关注我们的直播，三点钟准时开始哦～
388,武汉·楚河汉街,2,0.999943,30.55846603,114.33691,MATTINO马蒂诺西装定制,2.58E-05,0.999974,1,2,0,01月12日 14:04, , ,海外,2.931269894,10,1,MATTINO | 今日分享作为格纹届段位最高的威尔士亲王格，在前篇一律的格纹里，它的超凡脱俗有目共睹。#武汉西装高级定制##西装##婚礼##婚纱礼服#
389,武汉·东湖风景区,0,0.845692,30.54583487,114.4004719,肖六生,0.0694387,0.930561,0,2,0,01月12日 15:28,str,xiaojianjie,0,0.918169117,23,1,东湖磨山梅园码头11:30出发，一路沿着湖岸线，穿过武汉大学，路过放鹰台，14：50进入听涛景区。等于又走通了一条东湖磨山景区到听涛景区的新路线。
390,武汉·维佳·佰港城,0,0.999612,30.50548733,114.3213023,Lin丶羽贤,0.000174478,0.999825,0,2,0,01月12日 15:28, , ,湖北 十堰,2.931269894,10,1,南湖佰港城商圈中心精装三房～居家首选，临商圈近地铁，拎包入住看房方便～合租居家均可，小区环境优美人车分离，再也闻不到汽车尾气啦！欢迎资讯～#南湖#2武汉·武汉理工大学南湖新校区
391,武汉·江汉路,0,0.999775,30.5861812,114.2823964,ZE·老凯,0.000101169,0.999899,0,2,0,01月12日 15:19, , ,0,0.44466066,18,1,作品更新 粉红少女心#武汉纹身##武汉刺青##武汉school纹身##newschooltattoo##武汉纹身穿孔#
392,武汉·艾尚花桥,0,0.994581,30.62042198,114.2827897,Tseway_88046,0.00243839,0.997562,0,2,0,01月12日 15:13, , ,湖北 武汉,0.44466066,18,1,武汉每天都不一样，在不努力就要被武汉给抛弃了。2020继续前行，努力，对自己最好的回报，加油！！！
393,武汉·江汉路,0,0.999703,30.5861812,114.2823964,明天图库,0.000133657,0.999866,0,2,0,01月12日 15:13, , ,湖北,0.44466066,18,1,喵呜明天刺青#明天图库##武汉纹身#
394,武汉·达拉斯医疗美容,0,0.600985,30.5682161,114.3030602,武汉达拉斯韩姐姐,0.179557,0.820443,0,2,0,01月12日 15:07, , ,湖北,0.918169117,23,1,武汉达拉斯刘波医美术前沟通喜欢华丽一点，不要太自然，术后25天
395,武汉·南国明珠,0,0.980961,30.54334486,114.1969044,Bob-Rabbit,0.00856753,0.991432,0,2,0,01月12日 16:50,str,bobormrbean,0,0.52938045,22,1,#武汉南国明珠#
396,武汉·武汉大学,6,0.999548,30.53980024,114.3609749,冬日之至,0.000203233,0.999797,0,2,0,01月12日 16:50, , ,湖北 武汉,0.918169117,23,1,#周末时光##武汉生活# 这个冬季在等一场大雪……
397,武汉·汉口火车站,0,0.952105,30.62153636,114.24898,是阿丽丽丽丽呀,0.0215528,0.978447,0,2,0,01月12日 16:50, , ,0,0.30871907,20,1,??在路上。#手机摄影#
398,武汉·东湖风景区,0,0.998643,30.54583487,114.4004719,飘摇的烟云,0.000610813,0.999389,0,2,0,01月12日 16:35, , ,湖北 武汉,0.918169117,23,1,冬雾弥漫着武汉东湖如人间仙界一般雾中的东湖宛如一幅水墨山水画  美的让人停下脚步雾中看东湖有一种独特的感觉仿佛置身梦幻仙境在阴冷的冬日里感受东湖不一样的美
399,武汉·后湖,0,0.999499,30.64924688,114.3013156,施罗斯脊柱侧弯-周周,0.00022566,0.999774,0,2,0,01月12日 16:35, , ,湖北,0.44466066,18,1,#今日施罗斯动态# 施罗斯SBP治疗师认证课程第五天，武汉工作室，参加认证的治疗师学员们正在进行理论考核。这也是SBP治疗师认证课程首次将卷面考试加入考核。#脊柱侧弯保守治疗# ???#德国施罗斯脊柱侧弯矫正##脊柱侧弯#
400,武汉·昕瑞摄影,0,0.999468,30.57672227,114.3388869,昕瑞摄影,0.00023926,0.999761,1,2,0,01月12日 16:26,str,xinruisheying,0,2.931269894,10,1,武汉约拍#Ray studio｜客片分享##写真# 今日份小可爱[奸笑]
401,武汉·武汉天地,0,0.814034,30.60979638,114.3059468,美食旅游君高磊,0.916315,0.0836847,0,0,0,01月12日 16:16,str,anxiaode,0,0.44466066,18,1,美食#美食##武汉美食# 打卡一家日本拉面馆琥家拉面，位置在武汉天地，门面很小，装潢有点日式，点了一碗人气No.1的博多原味豚骨拉面，拉面劲道还行，汤底有点咸，而不是鲜，而且喝到嘴里有一股猪骚味。价格却跟味千拉面持平，相比这家拉面不是很值。
402,武汉·绿地·国际金融城,0,0.992215,30.58436354,114.3187156,武汉品胜装饰,0.00350335,0.996497,0,2,0,01月12日 16:16, , ,武汉品胜在线装饰有限公司,0.918169117,23,1,中国 ·?武汉?·?锦绣中北Design style?北欧Design team 品胜装饰Apartment 一室一厅Pattern&Cost 半包&5万扫码观看全程工地详细记录??#设计##小户型#
403,武汉·后湖,0,0.997409,30.64924688,114.3013156,武汉施罗斯脊柱侧弯矫正,0.00116592,0.998834,0,2,0,01月12日 16:16, , ,湖北 武汉,0.44466066,18,1,#今日施罗斯动态# 施罗斯SBP治疗师认证课程第五天，武汉工作室，参加认证的治疗师学员们正在进行理论考核。这也是SBP治疗师认证课程首次将卷面考试加入考核。#脊柱侧弯保守治疗# ???
404,武汉·群星城,0,0.979581,30.58673121,114.3438019,兔小小雯,0.00918842,0.990812,0,2,0,01月12日 16:16, , ,湖北,2.931269894,10,1,真是一个无聊的周末～到处走走停停，吃吃喝喝！#吃货在这里##武汉美食##武汉吃喝玩乐##一人食#
405,武汉·武汉市第一医院,0,0.860405,30.5745905,114.2666098,复方sod熊果苷乳膏专代,0.0628178,0.937182,0,2,0,01月12日 16:04, , ,湖北 武汉,0.410438256,21,1,一医院??自制熊果苷祛斑美白 青娥开好啦#sod熊果苷乳膏##武汉第一医院自制药膏##武汉第一医院复方sod熊果苷乳膏#
406,武汉·钢花南苑,0,0.99994,30.62069654,114.3839098,JuiceDoll布偶猫舍,2.68E-05,0.999973,0,2,0,01月12日 17:59, , ,其他,2.931269894,10,1,小桃桃这张调皮又可爱！#武汉布偶猫舍##武汉布偶猫##布偶猫#
407,武汉·紫润明园小区,0,0.241972,30.62406669,114.2058234,遇见她是必须的迷恋,0.341113,0.658887,0,2,0,01月12日 17:34, , ,湖北 武汉,0.410438256,21,1,#武汉记录#糯米包油条没有油条，我鸟个去
408,武汉·凯德1818,0,0.999814,30.55539861,114.3344842,FLORAWHITE植白花艺美学室,8.36E-05,0.999916,0,2,0,01月12日 17:34, , ,湖北 武汉,0.918169117,23,1,新到店的果酱色大花惠兰每朵花的绽放都寓意着来年更好[愉快]#武汉花店#武汉花艺武汉花艺培训花艺#大花惠兰#
409,武汉·怡江苑,5,0.621701,30.62404361,114.3530417,热心市民小王w,0.170234,0.829766,0,2,0,01月12日 17:25, , ,湖北 武汉,0.721320639,19,1,武汉租房青山奥山世纪城附近小一居，年底便宜出租，无中介费用
410,武汉·保利茉莉公馆,1,0.988827,30.50046352,114.4124321,武汉宠物家,0.994972,0.00502782,0,0,0,01月12日 17:15,str,hgchihuo,0,2.931269894,10,1,武汉 很多时候我有点不明白，为什么很多人养了猫，或者是狗扔掉卖掉难道说一年以上的陪伴都没有感情吗？动物是有感情的，所以说，在选择养猫或者养狗之前要想清楚，一定要有责任不能轻易的去抛弃他们。
411,武汉·巴山夜雨总督府,1,0.998283,30.54668224,114.3267235,子路_,0.000772528,0.999227,0,2,0,01月12日 19:59,str,ziluhb,0,0.918169117,23,1,#武汉最轻松好玩的年会##大吉大利今晚煸鸡# 在武汉吃鸡认准“老韩煸鸡# @权叔
412,武汉·花园道,0,0.999576,30.58474436,114.2802019,嘉良instyle,0.000190742,0.999809,0,2,0,01月12日 19:59, , ,0,0.30871907,20,1,这个颜色只有你染了才知道有多好看[嘿哈]#武汉##武汉染发##instyle大明星##锁骨发#
413,武汉·楚河汉街,1,0.960682,30.55846603,114.33691,武汉街拍Show,0.017693,0.982307,2,2,0,01月12日 19:41, , ,湖北 武汉,2.931269894,10,1,武汉街拍Show第662期你们爱吃糖葫芦吗？#武汉街拍##街拍##女生眼中的腿精#
414,武汉·巴山夜雨总督府,8,0.999801,30.54668224,114.3267235,武汉三镇美食圈,8.98E-05,0.99991,1,2,0,01月12日 19:29, , ,湖北 武汉,0.918169117,23,1,#武汉最轻松好玩的年会##大吉大利今晚煸鸡#看看别人老韩煸鸡家的年会不仅有搏击PK比赛，还有各种小游戏专业级的歌舞表演，重点是还有大奖抽@老韩煸鸡
415,武汉·光谷创业街,0,0.87845,30.50688732,114.424685,小熊不是软糖儿,0.0546975,0.945303,0,2,0,01月12日 20:59, , ,0,2.931269894,10,1,年前武汉最后一顿晚餐用火锅结束8??
416,武汉·时尚欧洲,3,0.455174,30.59318143,114.3420478,整形医生吴闯,0.245172,0.754828,0,2,0,01月12日 20:59, , ,湖北,2.931269894,10,1,整形医生#整形医生吴闯# 线雕术后效果可以维持多久呢？@武汉市第一医院 武汉#线雕#
417,武汉·武汉国际会展中心,2,0.872959,30.58212709,114.2683249,花与汉娜,0.0571683,0.942832,0,2,0,01月12日 20:24,str,zhanglinyan,0,0.30871907,20,1,『百花迎春——武汉市文学艺术界2020文艺展演』
418,武汉·川屿映画,0,0.998375,30.55634627,114.3337018,Daniel-丁曦,0.000731125,0.999269,1,2,0,01月12日 20:24, , ,湖北 武汉,0.918169117,23,1,今日份婚礼速递????#武汉婚礼跟拍#武汉婚礼
419,武汉·江汉路,0,0.987593,30.5861812,114.2823964,新生儿摄影师豆爸,0.00558307,0.994417,0,2,0,01月12日 20:06, , ,湖北 武汉,0.44466066,18,1,2020年第一条微博更新最近一直都在忙拍照都没有发动态15天的小博士爱看书武汉新生儿摄影武汉孕妇照萌宝武汉约拍#武汉新生儿上门摄影#
420,武汉·武汉武广国际,2,0.940712,30.57920702,114.2636847,小蓥想暴富,0.0266794,0.973321,0,2,0,01月12日 21:59, , ,其他,0.410438256,21,1,2武汉·武汉武广国际，#武汉记录#今天是小黄
421,武汉·街道口,0,0.980361,30.52650357,114.3537022,网红发型师晓军,0.00883757,0.991162,0,2,0,01月12日 21:59, , ,0,2.931269894,10,1,武汉刘德华了解一下
422,武汉·东湖梨园,0,0.845871,30.57611001,114.3696042,丶丶丶丶撻撻,0.0693581,0.930642,0,2,0,01月12日 21:20, , ,湖北 武汉,0.918169117,23,1,路过灯会门口拍一张，这货表情?? 拍时刚好后面有个阿姨也在比动作拍照，刚好错位像是在指他?? 后面看照片才发现头顶还戴一朵花? 武汉#错位拍照大赛#
423,武汉·江汉路,0,0.912898,30.5861812,114.2823964,ZS脏辫潮人,0.0391958,0.960804,0,2,0,01月12日 22:59, , ,湖北 武汉,0.44466066,18,1,最近挺多事的，别再问zs什么时候放假了，我也不知道啊??有可能突然放假，有可能不放假????想要精致的脏辫你就需要等等。#武汉脏辫##专业脏辫教学#
424,武汉·华中师范大学,0,0.356736,30.5199928,114.3552674,居四北,0.289469,0.710531,0,2,0,01月12日 22:59, , ,0,2.931269894,10,1,毕业之前信誓旦旦一定不会想念武汉，毕业之后，脸真疼所以我回来啦（房东的钥匙扣居然是巍澜）
425,武汉·江汉路,1,0.965938,30.5861812,114.2823964,鱼蛋luvya-,0.0153281,0.984672,0,2,0,01月12日 22:48, , ,0,0.44466066,18,1,武汉#寒假生活# 岂能尽如人意
426,武汉·汉阳火车站,6,0.994855,30.55520742,114.2502718,月湖桥下的3路电车,0.00231522,0.997685,1,2,0,01月12日 22:48, , ,湖北 武汉,0.52938045,22,1,年度好货高级临客Z4177和Z4178运行在武汉枢纽内
427,武汉·江汉路,0,0.999339,30.5861812,114.2823964,文身师-小雅,0.000297664,0.999702,0,2,0,01月12日 22:48, , ,0,0.44466066,18,1,无文案#武汉隐刺青#纹身师小雅#原创纹身手稿##学纹身#武汉纹身#纹身师#
428,武汉·江汉路,0,0.999876,30.5861812,114.2823964,武汉_八方刺青工作室,5.57E-05,0.999944,0,2,0,01月12日 22:33,str,FaithTATTOO,0,0.44466066,18,1,如果有一天我走了我爱的人愿你安好爱我的人请别牵挂人生只是一场旅行就当我去了远方  ???#纹身手稿##武汉八方刺青##武汉纹身#
429,武汉·江汉路,0,0.96721,30.5861812,114.2823964,一点美食,0.0147556,0.985244,0,2,0,01月12日 22:33, , ,湖北 武汉,0.44466066,18,1,"#武汉最轻松好玩的年会##大吉大利今晚煸鸡# 今天参加了@老韩煸鸡 的年会，竟然将""""煸王""""争霸赛搬到年会现场了，太厉害了！！！"
430,武汉·汉口火车站,4,0.999996,30.62153636,114.24898,宅小蝎summer,0.999998,1.85E-06,0,0,0,01月12日 22:25,str,xiamu1109,0,0.30871907,20,1,这年代，嫂子开车压黄实线把车擦了，还一副理直气壮的说自己借道，没有责任，交警来判定说全责，还要申诉去理赔中心定责，结果还是压实线全责，自己全责还要骂人的理直气壮。武汉的老嫂子真是可怕。这种压线擦车不扣分吗？@武汉交警 @武汉汉阳交警
431,武汉·武汉剧院,1,0.252891,30.59002698,114.2823182,京汉楚,0.663801,0.336199,0,0,0,01月12日 22:25, , ,湖北 武汉,0.44466066,18,1,20200112武汉剧院 山西省歌舞剧院演出大型舞蹈史诗《黄河》不明白为什么叫舞蹈史诗，只要是舞蹈就能称得上叫史诗吗？
432,武汉·百步亭花园文卉苑,0,0.635001,30.66134315,114.3149786,小陈cx1992519,0.83575,0.16425,0,0,0,01月12日 22:16, , ,其他,0.44466066,18,1,#武汉宠物救助站#有人愿意收留小狗吗，小区附近被遗弃了。家里有猫狗了，实在有心无力
433,武汉·西北湖凤凰城,0,0.99773,30.60516091,114.2622416,武汉租房无中介全武汉好房,0.00102133,0.998979,0,2,0,01月12日 23:59, , ,0,0.30871907,20,1,江汉区 菱角湖站附近 地铁房 西北凤凰城 1050/月 单间 ，比邻北湖，午后时光散步锻炼的聚集地，拎包入住，家电设施齐全，想租的朋友扣我#武汉租房# 武汉租房子
434,武汉·江汉路,0,0.999932,30.5861812,114.2823964,文身师-小雅,3.06E-05,0.999969,0,2,0,01月12日 23:59, , ,0,0.44466066,18,1,小工程武汉纹身#武汉隐刺青#纹身师小雅#纹身素材##纹身师#武汉刺青#胸口纹身##小清新纹身##情侣纹身#
435,武汉·六渡桥,0,0.932079,30.57875989,114.2781912,武汉整租房15802741743201909,0.0305644,0.969436,0,2,0,01月12日 23:59, , ,0,0.30871907,20,1,武汉租房江汉区地铁6号线六渡桥650米        天仁小区两室一厅一卫整租1550月
436,武汉·中建康城,0,0.947504,30.47344108,114.4017076,Simply丶浅安,0.976377,0.0236231,0,0,0,01月12日 23:33, , ,湖北 武汉,2.931269894,10,1,#武汉记录#照骗?深夜放毒
437,武汉·街道口,7,0.683047,30.52650357,114.3537022,筐筐喵食记,0.142629,0.857371,0,2,0,01月12日 23:33, , ,湖北 武汉,2.931269894,10,1,深夜放毒，  有人喜欢柳州螺蛳粉嘛？武汉美食#城市味蕾战##筐筐喵食记#
438,武汉·楚河汉街,39,0.999848,30.55846603,114.33691,权叔,6.86E-05,0.999931,28,2,0,01月12日 23:24, , ,0,2.931269894,10,1,#武汉最轻松好玩的年会#武汉最轻松好玩的年会圆满结束！老韩煸鸡这两年的变化很大，变得越来越休闲、年轻、时尚、有趣、讨人喜欢了！如果你喜欢吃老韩煸鸡，请给个赞！ #大吉大利今晚煸鸡#
439,武汉·六渡桥,0,0.535605,30.57875989,114.2781912,ET627,0.208978,0.791022,0,2,0,01月12日 23:11, , ,其他,0.30871907,20,1,Champion again. Team @刘雨辰1961 @wh777789 @莪叫蓝姐 @冷艳-帮主    你们的武汉球迷
440,武汉·江汉路,0,0.999214,30.5861812,114.2823964,JANE-TATTOO,0.000353628,0.999646,0,2,0,01月12日 23:11, , ,湖北 武汉,0.44466066,18,1,纹身#武汉纹身##JANE TATTOO# 狮子座
441,武汉·卓刀泉,0,0.966181,30.51297434,114.3673752,不努力公式,0.0152187,0.984781,0,2,0,01月13日 00:58, , ,湖北 武汉,2.931269894,10,1,打卡《消逝的光芒》2000平的场地，6个npc，288的价格，可能是武汉最具性价比的沉浸式密室，但是不知道是选的角色问题还是一刷的问题，感觉自由度比较低，其他角色被吓得嗷嗷直叫我们这边低头干事岁月静好。总的来说还是值回票价。
442,武汉·华中农业大学,0,0.930523,30.47779527,114.3517885,儿时childTIME,0.0312646,0.968735,0,2,0,01月13日 00:58, , ,湖北 武汉,2.931269894,10,1,且将新火试新茶，诗酒趁年华。在武汉待小年就回家啦这几天赶紧继续好好学习几天加油加油加油带火们都还待在华农干嘛鸭
443,武汉·武汉国际会展中心,0,0.695896,30.58212709,114.2683249,蔡蔡美思,0.136847,0.863153,0,2,0,01月13日 00:19, , ,湖北 武汉,0.30871907,20,1,白天讲课 晚上唱歌武汉的小嫂子们就是蛮狠
444,武汉·卓刀泉,0,0.999977,30.51297434,114.3673752,武汉芙蓉轩汉服摄影体验馆,1.02E-05,0.99999,0,2,0,01月13日 00:07, , ,湖北 武汉,2.931269894,10,1,客片分享，喜欢敦煌风格的可以来拍。#武汉约拍##汉服##写真##武汉约拍##婚礼策划##喜欢拍照也喜欢你#
445,武汉·光谷青年城,1,0.99997,30.49489789,114.3988265,柠檬是我的宝宝,1.36E-05,0.999986,0,2,0,01月13日 00:07, , ,湖北 武汉,2.931269894,10,1,昨天约见了十几年的老同学，今天又约了认识十多年的朋友。知道我来了武汉，都主动约我吃饭，真的很感动，谈了很多，也了解了各自现在的生活，这两年怀孕生娃，精力都放在孩子身上，感觉自己好像与世隔绝了很久，虽然很久没有联系，但是再见依然亲切。人生得知己一二，真的足
446,武汉·汉口火车站,0,0.999873,30.62153636,114.24898,武汉纹身师一阿久,5.71E-05,0.999943,0,2,0,01月13日 01:30, , ,0,0.30871907,20,1,定制全家福  很可爱的一个姐姐??内心os（她的朋友??也很可爱）#武汉纹身#
447,武汉·江汉路,0,0.517109,30.5861812,114.2823964,冰格印记,0.782699,0.217301,0,0,0,01月13日 02:57, , ,其他,0.44466066,18,1,如果，假如有如果武汉约拍
448,武汉·东湖风景区,0,0.998466,30.54583487,114.4004719,太阳照日1葵,0.99931,0.000690453,0,0,0,01月13日 04:39, , ,0,0.918169117,23,1,武汉的兄弟记住@小爱玲同学 这个骗子！！！！！
449,武汉·武汉大学人民医院,0,0.979103,30.53766061,114.2939246,用户7371324037,0.00940351,0.990597,0,2,0,01月13日 06:58, , ,0,0.918169117,23,1,2武汉·武汉大学人民医院，很好
450,武汉·斐迹甜品,0,0.999949,30.50476043,114.4016805,斐迹甜品,2.31E-05,0.999977,0,2,0,01月13日 07:59, , ,湖北 武汉,2.931269894,10,1,华丽又仙的旋转木马蛋糕，装饰真的很美武汉#武汉蛋糕##武汉美食##蛋糕#
451,武汉·艾尚花桥,17,0.999558,30.62042198,114.2827897,老白屹,0.000198917,0.999801,9,2,0,01月13日 07:59, , ,湖北 武汉,0.44466066,18,1,武汉#随手拍##摄影不凡# 在仙境中的武汉，终于拍到平流层@微博摄影 @微相册 @绿洲摄影
452,武汉·武昌火车站,0,0.747265,30.53088598,114.3121545,夏日微凉吖,0.886269,0.113731,0,0,0,01月13日 07:31, , ,湖北,0.918169117,23,1,今年在武汉坐车，没有一次不是狂奔去检票，又一次要跑吐了
453,武汉·弘业俊园,4,0.222507,30.52576987,114.3254591,冬月又初柒,0.650128,0.349872,0,0,0,01月13日 08:59, , ,其他,0.918169117,23,1,#武汉记录#谁家的狗狗丢失了 可乖了  还是香香  主人快点来认领啊  太会吃了养不起
454,武汉·宝通寺,1,0.792038,30.53420753,114.3352476,C丿路,0.0935827,0.906417,0,2,0,01月13日 08:35, , ,湖北 武汉,0.918169117,23,1,派出来学习三天，第一天就感受武汉春运地铁的味道了。??
455,武汉·武汉站,0,0.486326,30.60937946,114.418856,奇梦人S,0.231153,0.768847,0,2,0,01月13日 08:13, , ,广东 深圳,2.931269894,10,1,到武汉了，打个卡
456,武汉·武汉老兵纹身店,0,0.99998,30.57941653,114.2889257,武汉老兵纹身,8.92E-06,0.999991,2,2,0,01月13日 09:59,str,911121010,0,0.30871907,20,1,早安，超可爱超萌的一组纹身图案，妹子们有福喽武汉纹身
457,武汉·南湖幸福湾公园,0,0.744805,30.49940251,114.3332218,大聖1970,0.114838,0.885162,0,2,0,01月13日 09:59, , ,湖北 武汉,2.931269894,10,1,碎片/武汉。#手机摄影#
458,武汉·M 购物中心,0,0.899096,30.59520986,114.2995562,舒米勒001,0.0454067,0.954593,0,2,0,01月13日 09:53, , ,湖北,0.44466066,18,1,循礼门都会轩，好房不等人#武汉租房##武汉合租#
459,武汉·凯乐桂园,0,0.589912,30.51263762,114.3649192,荒郡,0.18454,0.81546,0,2,0,01月13日 09:53, , ,湖北 武汉,2.931269894,10,1,#武汉租房超话#天气越来越冷了??要么找个温暖的人[爱心]要么租间温暖的房总要对自己好一点?? ???
460,武汉·武汉高铁站,0,0.995949,30.59386784,114.2866731,ai嘟小嘴不优柔,0.00182315,0.998177,0,2,0,01月13日 09:30, , ,山西,0.44466066,18,1,一学期第一次在武汉看到日出咔嚓咔嚓全拍在眼里了[米奇比心]
461,武汉·武汉高铁站,2,0.999014,30.59386784,114.2866731,齐迷秋警官,0.000443851,0.999556,0,2,0,01月13日 09:20, , ,湖北 黄冈,0.44466066,18,1,齐迷秋警官#齐迷秋警官# 我在这里，你在哪里？ #你笑起来真像好天气##爱你就像爱生命##武汉#
462,武汉·楚河汉街,1,0.982593,30.55846603,114.33691,万壑松风T,0.0078333,0.992167,0,2,0,01月13日 09:20, , ,0,2.931269894,10,1,武汉东湖之夜2020年新春花灯展、璀璨夺目！
463,武汉·汉口站,1,0.998128,30.62153636,114.24898,晓晓琴琴w,0.000842196,0.999158,0,2,0,01月13日 10:59, , ,0,0.30871907,20,1,美丽武汉汉口火车站??
464,武汉·水域天际,1,0.986428,30.50478555,114.3174879,为什么不去问问陈陈陈陈旋呢,0.00610746,0.993893,0,2,0,01月13日 10:53, , ,湖北,2.931269894,10,1,武昌南湖花园精装修两房，在水域天际，沃尔玛佰港城旁边，看房方便，出行购物都很便利武汉租房
465,武汉·万科金色家园,0,0.997114,30.58476986,114.2754274,人皮改造店,0.00129869,0.998701,0,2,0,01月13日 10:39, , ,湖北 武汉,0.30871907,20,1,是有想法的臂环“我还要和生活抗争一会 不是他死就是我亡 如果有一天你发现我在向平庸低头 请向我开炮”#武汉纹身##原创纹身##school纹身##小清新纹身##纹身#
466,武汉·长港路站,0,0.995949,30.63096687,114.2404829,我心如雷1983,0.00182308,0.998177,0,2,0,01月13日 10:32, , ,湖北 武汉,0.30871907,20,1,#武汉# 今日好天气！@湖北天气
467,武汉·中南财经政法大学,0,0.964933,30.53575837,114.3072915,帅气wei先森i,0.0157802,0.98422,0,2,0,01月13日 10:32, , ,安徽 淮南,0.918169117,23,1,武汉租房金融港森林小镇主卧独卫，采光贼好，业主自带大壁柜
468,武汉·江汉路,0,0.992734,30.5861812,114.2823964,武汉_八方刺青工作室,0.00326959,0.99673,0,2,0,01月13日 10:21,str,FaithTATTOO,0,0.44466066,18,1,【朝花夕拾】人生不过三万天，成功失败均坦然，是非恩怨莫在意，健康快乐最值钱。 ???#纹身手稿##武汉八方刺青##武汉纹身#
469,武汉·福星惠誉东澜岸,2,0.100717,30.43491761,114.2610655,谈q不说ai,0.404677,0.595323,0,2,0,01月13日 10:21, , ,湖北,2.931269894,10,1,有没有过年不回家的小姐姐！一起东澜岸过年呀  @武汉科技大学 @武汉交通职业学院
470,武汉·街道口,1,0.999078,30.52650357,114.3537022,海边的卡尔,0.999585,0.000414915,0,0,0,01月13日 12:46, , ,0,2.931269894,10,1,武汉街道口的大米先生是真的难吃，要吃吐了，这个店的厨师是不是味觉有问题啊@大米先生rice
471,武汉·后湖,0,0.990565,30.64924688,114.3013156,WY洁宝宝,0.00424565,0.995754,0,2,0,01月13日 12:30, , ,湖北 武汉,0.44466066,18,1,2武汉·后湖，#愿你遇到的人都是温暖的#最想对男朋友说什么？
472,武汉·武汉站,0,0.998355,30.60937946,114.418856,用户6254420540,0.000740368,0.99926,0,2,0,01月13日 13:59, , ,0,2.931269894,10,1,我爱武汉站  O绿洲
473,武汉·大武汉家装,5,0.993851,30.5148482,114.3458266,MrBig-无聊中,0.00276701,0.997233,2,2,0,01月13日 13:48, , ,湖北 武汉,2.931269894,10,1,今天武汉-1度，拍照太拼了。富士xt3的机内调色还是很好看的，jpg直出，感觉还不错@富士数码影像世界
474,武汉·安顺家园,0,0.971579,30.55582626,114.3319337,画家黎增辉,0.0127893,0.987211,0,2,0,01月13日 13:30, , ,北京 朝阳区,0.918169117,23,1,画说人生武汉海山文化艺术城富一层1一O6号
475,武汉·徐东大街 2武汉,0,0.944021,30.57885319,114.356581,羅蘭蘭花兒開,0.97481,0.0251904,0,0,0,01月13日 13:30,str,312400096,0,0.918169117,23,1,@武汉交警 @平安武昌 徐东大街才华街往销品茂方向的下徐东隧道口，正路面中间有只被压死的猫咪，影响车辆正常行驶，对城市的形象也不太好。相关部门能不能及时处理一下呀～#徐东#
476,武汉·江滩,0,0.979189,30.58829655,114.2972908,阿申先生,0.00936483,0.990635,0,2,0,01月13日 13:17, , ,广东 深圳,0.44466066,18,1,武汉天气不错，愿武汉之行万事顺意！
477,武汉·巴山夜雨总督府,0,0.999702,30.54668224,114.3267235,武汉消费者指南,0.000134221,0.999866,0,2,0,01月13日 14:47, , ,0,0.918169117,23,1,#美食##武汉美食# 【大吉大利·今晚煸鸡】老韩煸鸡2019-2020年会。现场有中国女拳王和外国男拳王的精彩比武。还有歌曲表演、趣味游戏、网红互动。晚会隆重、精彩、热闹。祝老韩煸鸡红红火火，开遍神州大地！
478,武汉·江汉路,0,0.999848,30.5861812,114.2823964,囍鸽--TATTOO,6.83E-05,0.999932,0,2,0,01月13日 14:36, , ,其他,0.44466066,18,1,「近日」  卡通捕梦网。终于想起来发这个稿了??  还是星月系列的主题  不过是彩色的有嗲顽皮的样子喔！  那滴雨像是仙女的眼泪??  元素：捕梦网 星月  风格：卡通??#武汉纹身##卡通纹身##old school##原创纹身##tattoo##捕梦网纹身##女生纹身##绘画#
479,武汉·汉阳人信汇,0,0.955236,30.55389757,114.1989094,小北和小贝1988,0.020144,0.979856,0,2,0,01月13日 14:27, , ,湖北 武汉,0.52938045,22,1,# 小姐姐的花店 ##武汉花艺# 愿一切为之努力的事情在2019的末尾都能有一个浪漫的结果
480,武汉·金地自在城,0,0.794125,30.60934717,114.3809182,高端旅游定制zz,0.0926439,0.907356,0,2,0,01月13日 14:18, , ,湖北 咸宁,2.931269894,10,1,?? 【春节柬埔寨】? ?? 武汉直飞暹粒5/6日游[呲牙]
481,武汉·汉口站,7,0.998698,30.62153636,114.24898,那我去关月亮了啊,0.999414,0.000585614,0,0,0,01月13日 14:09, , ,湖北,0.30871907,20,1,上午躺在家的床上发的微博然后我现在就回武汉了妈的 这你敢信？ 我再也不奶我自己了
482,武汉·港澳台风情街,0,0.999865,30.58788561,114.2885601,VISCUBECOFFEE,6.06E-05,0.999939,0,2,0,01月13日 14:09,str,scholarcoffee,0,0.44466066,18,1,换个发型换个心情#VISCUBE COFFEE##COFFEE VLOG# #武汉咖啡培训##咖啡视界##武汉生活#
483,武汉·武汉大学信息学部,5,0.00779788,30.53090969,114.3538559,lisaisamyth,0.446491,0.553509,0,2,0,01月13日 15:58, , ,其他,2.931269894,10,1,现在每天早上醒来的固定项目由搜索武汉非典型肺炎到看邮件，看成绩。 害，但是并没有任何回音…心情也是，从早上醒来到晚上逐渐下降，每天晚上都有点难过，可能因为学校里的朋友都回家了吧，家里面的朋友也见不到，想你们了…
484,武汉·江汉路步行商业街,0,0.984445,30.58605471,114.2825757,ALBLANK,0.0069999,0.993,0,2,0,01月13日 15:18,str,fankykone,0,0.44466066,18,1,#武汉江汉路##江汉关博物馆##辛亥革命武昌起义纪念馆##手机随拍# 武汉的故事很多，还未来得及一一听完。
485,武汉·悦课教育,0,0.0372264,30.59520986,114.2995562,武汉悦课教育发展有限公司,0.433248,0.566752,0,2,0,01月13日 15:18, , ,武汉悦课教育发展有限公司,0.44466066,18,1,苹果卖的不是手机~~是系统，江小白卖的不是白酒~~是故事，我们提升的不是学历~~是前途。2020年大专，专升本报名开始啦。#湖北##武汉#
486,武汉·街道口,0,0.988968,30.52650357,114.3537022,薛老师笑起来也太甜了吧,0.00496427,0.995036,0,2,0,01月13日 15:09, , ,0,2.931269894,10,1,薛之谦上上谦终于要开到武汉了，薛老师在剪彩那天会去吗？图是别的xjj的，忘了id
487,武汉·武汉华夏理工学院,2,0.947376,30.46928131,114.406385,AAAAAAA颖呀,0.0236807,0.976319,0,2,0,01月13日 16:59, , ,湖北,2.931269894,10,1,??继续好房推荐[机智]??三和光谷道??890元/月   主卧   可月付#武汉租房##金融港租房#
488,武汉·江滩,2,0.981234,30.58829655,114.2972908,小胡也会生气,0.00844482,0.991555,0,2,0,01月13日 16:59, , ,湖北 武汉,0.44466066,18,1,与君同行，V来更美武汉市区市场部    fighting！
489,武汉·江汉路,0,0.999389,30.5861812,114.2823964,千玺刺青,0.000274851,0.999725,0,2,0,01月13日 16:50, , ,其他,0.44466066,18,1,#武汉纹身##手臂纹身##纹身手稿# 狐狸先森
490,武汉·武汉老兵纹身,0,0.999754,30.57941653,114.2889257,兵哥_武汉老兵纹身,0.000110888,0.999889,0,2,0,01月13日 16:40,str,234031364,0,0.30871907,20,1,武汉刺青 一组适合女生的小清新纹身，送给第一次纹身的你#纹身素材##小清新纹身#
491,武汉·积玉桥,6,0.850178,30.57731693,114.3083211,芒果何春芳,0.0674197,0.93258,0,2,0,01月13日 16:40, , ,湖北 武汉,0.918169117,23,1,有小姐姐小哥哥 现在武汉买房子或者公寓的么，首付35万左右 复式楼 有天然气 还有市政供暖哟微信同手机号18827440583
492,武汉·江滩,0,0.993517,30.58829655,114.2972908,A武汉_八方刺青,0.00291715,0.997083,0,2,0,01月13日 16:16, , ,湖北 武汉,0.44466066,18,1,#武汉八方刺青##文身##纹身手稿# 是你眉眼动人，惹我半生风雪。【图片】
493,武汉·江滩,0,0.99389,30.58829655,114.2972908,A武汉_八方刺青,0.0027496,0.99725,0,2,0,01月13日 16:08, , ,湖北 武汉,0.44466066,18,1,#武汉八方刺青##文身##纹身手稿##花臂# 我自凉城来那里荒芜一片
494,武汉·楚河汉街,0,0.987363,30.55846603,114.33691,MATTINO马蒂诺西装定制,0.00568654,0.994313,0,2,0,01月13日 17:50, , ,海外,2.931269894,10,1,希望喜欢和适合能撞个满怀。#西装##武汉西装高级定制#
495,武汉·汉口站,1,0.902111,30.62153636,114.24898,武汉同城,0.04405,0.95595,0,2,0,01月13日 17:50, , ,湖北 武汉,0.30871907,20,1,#武汉春运#@Jack的影像日记 ：春运中的火车站。
496,武汉·洪广大酒店,0,0.992308,30.54664866,114.3281956,武汉洪广大酒店,0.00346144,0.996539,0,2,0,01月13日 17:30, , ,湖北 武汉,0.918169117,23,1,省两会期间?武汉洪广大酒店为两会顺利召开保驾护航：为您提供最优住房；迎宾接待均按照国际惯例；饮食按照军运会健康标准和服务质量。预订热线??TEL：02787131516
497,武汉·芙蓉堂,17,0.890947,30.61006488,114.3061735,武汉芈饭饭,0.0490739,0.950926,0,2,0,01月13日 17:22, , ,湖北,0.44466066,18,1,武汉美食#武汉吃喝玩乐#年底了吃点好的?? 武汉最??的湘菜之一，你们吃过没？
498,武汉·武汉大学科技园,0,0.981338,30.53980024,114.3609749,咸鱼翻了身还是咸鱼94,0.00839768,0.991602,0,2,0,01月13日 17:22, , ,0,0.918169117,23,1,张杰 希望你能够来武汉，期待你来武汉！！我想看到你的时候 是内场
499,武汉·古田桥,0,0.999308,30.58859595,114.1808894,武汉同城,0.000311357,0.999689,1,2,0,01月13日 18:55, , ,湖北 武汉,0.410438256,21,1,#遇见武汉冬天#1月13日，武汉雨雪天气暂时停歇，上午最高气温升至10摄氏度左右，天气晴好。汉江上的古田桥在蓝天的映衬下，显得格外漂亮。市民带着孩子在桥下散步，享受着冬日暖阳。#武汉打卡季#
500,武汉·金沙泊岸,45,0.801681,30.57749086,114.3457723,因为都是梦,0.910756,0.0892436,0,0,0,01月13日 19:59, , ,湖北,2.931269894,10,1,忙了两年  赚的钱 砸进去大半 终于在武汉有了属于自己的房子   19年下半年应该是最难的半年了  是该否极泰来了
501,武汉·江汉路,0,0.999856,30.5861812,114.2823964,武汉_八方刺青工作室,6.50E-05,0.999935,0,2,0,01月13日 19:47,str,FaithTATTOO,0,0.44466066,18,1,属于自己的风景，从来不曾错过；不是自己的风景，永远也都只是路过。天地太大，人太渺小，不是每一道亮丽的风景都能拥有。一辈子只求有一道令自己流连的风景，不离不弃，此生足已。————#纹身手稿##武汉八方刺青##武汉纹身#
502,武汉·武汉新天地,1,0.998899,30.57244177,114.2727126,武汉同城,0.000495366,0.999505,1,2,0,01月13日 19:47, , ,湖北 武汉,0.410438256,21,1,#遇见武汉冬天#春赏花，冬赏叶。#武汉打卡季#
503,武汉·沿海·菱角湖壹号,0,0.790439,30.60779583,114.2666182,Vandal_TheBarber,0.0943022,0.905698,0,2,0,01月13日 19:14, , ,湖北 武汉,0.30871907,20,1,Cornrow X  hightaper .#武汉Barbershop##武汉黑人烫##地垄沟#
504,武汉·湖北工业大学,0,0.00449114,30.4832079,114.3032878,清欢未盲,0.552021,0.447979,0,0,0,01月13日 20:59, , ,0,2.931269894,10,1,武汉的一个小姐姐说 一个人生活在外冷暖自知 要自己开心??
505,武汉·楚天星座,0,0.99979,30.59148565,114.2587479,病态的美,9.45E-05,0.999905,0,2,0,01月13日 21:59, , ,湖北 武汉,0.30871907,20,1,薛之谦武汉拥有上上谦啊！开心！开业之后我要连续去吃一个月 啊哈哈哈！要过日日笙歌的日子了吗？不醒的那种 听老薛的歌 吃着火锅 还要喝?? 老薛来巡店啊～看看湖北谦友～跟城堡一样 果然是老薛的风格～大型high. 唱现场啊
506,武汉·保利时代,0,0.981828,30.49360294,114.4022531,武汉摄影小法师,0.00817727,0.991823,0,2,0,01月13日 21:40, , ,湖北 武汉,2.931269894,10,1,武汉约拍  今年就快结束了，岁月的痕迹在脸上越发明显，年纪大了的好处就是慢慢开始知道自己到底想走一条什么路。在这一年有里收货也有失去我也慢慢学会取舍。对自己明年定个目标就是坚持去做一件事情并且每一次努力都能进步一点点，一点点就好。
507,武汉·楚河汉街,0,0.999615,30.55846603,114.33691,切尔西GZX,0.000173309,0.999827,0,2,0,01月13日 21:17, , ,海外 英国,2.931269894,10,1,看了一场4D叶问～ 吃了荔枝???烤鱼 嗝儿… 谢谢我大Ni这几天的投喂～ ?? 爱你呀 （武汉很大 也很美）@Nicole_Lee__
508,武汉·江汉路,0,0.994367,30.5861812,114.2823964,武汉老兵纹身-兵哥,0.00253477,0.997465,0,2,0,01月13日 21:17,str,wuhanwenshen,0,0.44466066,18,1,武汉刺青满背大?? #龙纹身# 敲起来……不知道今天敏感哥会扎多少……#武汉老兵纹身#
509,武汉·汉口火车站,0,0.838842,30.62153636,114.24898,照明湖北小业务,0.0725212,0.927479,0,2,0,01月13日 22:59, , ,湖北 武汉,0.30871907,20,1,夜晚的武汉地产
510,武汉·武汉动物园,0,0.982439,30.54474952,114.2369126,刘昌华先生,0.0079025,0.992097,0,2,0,01月13日 22:59, , ,0,0.52938045,22,1,武汉动物园我来武汉去的第一个景点，这次纳入年卡，我又来了，算是怀旧吧
511,武汉·广埠屯,0,0.922328,30.5254006,114.3575749,爱弟弟的小姐姐,0.0349524,0.965048,0,2,0,01月13日 23:59, , ,河南,2.931269894,10,1,武汉四日游结束
512,武汉·楚河汉街,27,0.997347,30.55846603,114.33691,喜楽糖,0.00119382,0.998806,0,2,0,01月13日 23:18, , ,湖北 武汉,2.931269894,10,1,晚上散步偶遇汉街新开的「夹机占」三层楼，玩个够，各种盲盒&娃娃，武汉又多了一个拍照打卡地#武汉##武汉吃喝玩乐#
513,武汉·幸福湾·星澜,0,0.975828,30.67276923,114.3320099,小妖爱喝养乐多i,0.0108774,0.989123,0,2,0,01月14日 01:58, , ,安徽 合肥,0.44466066,18,1,长沙?? 武汉，时隔一年跨省聚一波
514,武汉·江汉路,0,0.998089,30.5861812,114.2823964,武汉赫然,0.000860078,0.99914,0,2,0,01月14日 01:58, , ,0,0.44466066,18,1,#武汉记录#逆光而來 配得上世間所有美好·
515,武汉·民生路,0,0.740723,30.54206297,114.296664,汤YUAN米酒,0.116674,0.883326,0,2,0,01月14日 01:58, , ,0,0.918169117,23,1,十一号下午等红绿灯在武汉还是要等红绿灯的
516,武汉·楚河汉街,1,0.953672,30.55846603,114.33691,-禾沐中古-,0.0208476,0.979152,4,2,0,01月14日 02:57, , ,其他,2.931269894,10,1,店内现货，大大大大极品一堆堆，年前店里美物超多，欢迎各位小伙伴的光临实体店地址add：武汉市武昌区楚河汉街一街区松竹路17号·禾沐中古（汉街总部国际B座正对面）联系方式：mimivintage
517,武汉·武昌火车站,12,0.403314,30.53088598,114.3121545,壴川薇,0.268509,0.731492,0,2,0,01月14日 03:45, , ,湖北 武汉,0.918169117,23,1,刚到武汉 发现一个ej给我的橘子 被我从长沙带回来了那么挤居然完好无损 我真棒
518,武汉·宗关站,0,0.0492852,30.58466892,114.2192644,我与武汉并肩作战,0.572178,0.427822,0,0,0,01月14日 06:59, , ,0,0.410438256,21,1,#武汉记录#有没有丢狗子得，金毛，有点胖。早上五点多在小区里面捡到，因为家里有只狗子，带到家里不停的叫，给了点吃喝，我妈现在附近问谁家狗子呢。
519,武汉·江汉路,0,0.99992,30.5861812,114.2823964,文身师-小雅,3.62E-05,0.999964,0,2,0,01月14日 15:29, , ,0,0.44466066,18,1,过年约图的抓紧了，大年三十之前都可以约时间。武汉纹身#武汉隐刺青#纹身师小雅武汉刺青#纹身师##纹身##武汉#
520,武汉·江汉路,0,0.894694,30.5861812,114.2823964,武汉接发染发烫发3AM阿伟,0.952612,0.0473877,0,0,0,01月14日 15:29, , ,湖北 武汉,0.44466066,18,1,不肯下一点功夫，武汉接发永远不会明白从何而来，又将立足于何处。武汉3AM接发
521,武汉·光谷软件园,0,0.892786,30.47945602,114.4011938,用户6125812087,0.951754,0.0482465,1,0,0,01月14日 15:24, , ,0,2.931269894,10,1,武汉欧亚达黑心开发商O网页链接
522,武汉·武汉职业技术学院,0,0.894266,30.599484,114.4668547,丨hot丶柯,0.0475802,0.95242,0,2,0,01月14日 15:24, , ,湖北 武汉,2.931269894,10,1,武汉租房万科城花璟苑精装3室2厅2卫，转租期中一个朝南的房间1500包物业，随时看房！在软件园，世贸上班的可以看过来，希望爱干净，男女不限！13667158079手机号！
523,武汉·知音号,0,0.990579,30.59830878,114.3066388,zr_runningaway,0.00423928,0.995761,0,2,0,01月14日 07:37, , ,湖北 武汉,0.44466066,18,1,看看我大武汉的夜景 O绿洲
524,武汉·万松园,0,0.999874,30.59276378,114.261884,MIACHIC生活馆,5.68E-05,0.999943,0,2,0,01月14日 10:59,str,doubledreamshop,0,0.30871907,20,1,????真香預警！???原地????????美哭我！【????????????????招牌花??影】#武汉美睫##日式美睫#
525,武汉·Garden.M,0,0.824998,30.59520986,114.2995562,M花园GardenM,0.0787509,0.921249,0,2,0,01月14日 10:59, , ,湖北 武汉,0.44466066,18,1,天气又冷又干#武汉约拍##没有意外的小浪漫##武汉花店##武汉花艺培训#
526,武汉·楚河汉街,0,0.999839,30.55846603,114.33691,MissMa美爪博物馆,7.22E-05,0.999928,0,2,0,01月14日 10:46, , ,武汉我的马文化传媒有限公司,2.931269894,10,1,???????? ???? ??手绘美甲@美甲ins 指尖装满星河????美甲客片??#武汉美甲# #日系美甲# #新年显白美甲#
527,武汉·七星·雪香花园,5,0.66119,30.50943828,114.3129445,兽医霍家奇,0.847536,0.152464,0,0,0,01月14日 10:46, , ,湖北,2.931269894,10,1,谁是妈妈，谁是娃娃！@武汉市小动物保护协会 @国民老岳父公
528,武汉·吉庆街,2,0.931083,30.58802482,114.2860428,武汉身边事,0.0310126,0.968987,1,2,0,01月14日 15:18,str,hbxinwen,0,0.44466066,18,1,#武汉城事# @-Stefanie_sun- ：吉庆街的汉小城，虽然小时候不是武汉长大的，但这也很八九十年代啊~ ????
529,武汉·武汉老兵纹身店,3,0.999872,30.57941653,114.2889257,武汉老兵纹身,5.78E-05,0.999942,1,2,0,01月14日 15:05,str,911121010,0,0.30871907,20,1,酷酷的荆棘纹身图案，#武汉纹身#
530,武汉·江汉路,0,0.999435,30.5861812,114.2823964,武汉_八方刺青工作室,0.000254419,0.999746,0,2,0,01月14日 16:59,str,FaithTATTOO,0,0.44466066,18,1,每想你一次，天上都会掉下一粒沙          于是形成了撒哈拉沙漠每想你一次，天上都会掉下一滴水          于是形成了太平洋#纹身手稿##武汉八方刺青##武汉纹身#
531,武汉·江汉路,0,0.999929,30.5861812,114.2823964,粲然花艺工作室,3.20E-05,0.999968,0,2,0,01月14日 16:51, , ,湖北 武汉,0.44466066,18,1,这个季节这么美的蓝紫色鸢尾真的是很少，搭配喜欢的蝴蝶玫瑰，每一枝花都是开的最好的状态??#武汉花店##花艺培训#
532,武汉·武汉高铁站,0,0.824985,30.59386784,114.2866731,Vlad爱Dracula,0.0787567,0.921243,0,2,0,01月14日 10:38, , ,其他,0.44466066,18,1,2武汉·武汉高铁站，今时回家已2020??#武汉记录#
533,武汉·江汉路,0,0.99723,30.5861812,114.2823964,粲然花艺工作室,0.00124648,0.998754,0,2,0,01月14日 16:46, , ,湖北 武汉,0.44466066,18,1,椅背花有阳光的天气感觉花儿都在发着光??#武汉花店##武汉花艺培训#
534,武汉·江汉路,0,0.998247,30.5861812,114.2823964,粲然花艺工作室,0.000788899,0.999211,0,2,0,01月14日 16:46, , ,湖北 武汉,0.44466066,18,1,日常客单花束冬天里温暖的黄橙色系～#武汉花店##武汉花艺培训##花艺培训#
535,武汉·华中农业大学,2,0.985948,30.47779527,114.3517885,唐祖蓉要取个好听的昵称,0.00632361,0.993676,0,2,0,01月14日 16:46, , ,湖北 武汉,2.931269894,10,1,上周末，在武汉东湖绿道一棵树附近拍的这张照片，自我感觉拍的非常好，慢一会儿太阳??就没了，画中不小心入境的人儿，如果你们看到这张照片想要原图的话可以联系我。  ?@武汉市文化和旅游局 @中国武汉东湖 @湖北日报 @长江日报 @武汉发布
536,武汉·街道口,4,0.998772,30.52650357,114.3537022,到底要怎样才行呢,0.000552421,0.999448,0,2,0,01月14日 16:37, , ,其他,2.931269894,10,1,书亦烧仙草我可太爱了！这么多料才十块钱，为什么北京没有！我决定在武汉的每一天都要来一杯！
537,武汉·云顶居,0,0.410862,30.47956572,114.390979,李敏訥,0.734888,0.265112,0,0,0,01月14日 16:37, , ,0,2.931269894,10,1,葛優：“小的想問您，劉德華先生4月17、18、19武漢演唱會您去不去看？”不看“那您不去看他還唱個什麼勁？”唱給全國人民看，他是演藝勞模，值得人民看
538,武汉·江滩,0,0.999759,30.58829655,114.2972908,树下抱猫,0.000108536,0.999891,0,2,0,01月14日 11:59,str,yurenfengjimmy,0,0.44466066,18,1,油画棒 很喜欢油画棒的质感#武汉生活##每日一图#
539,武汉·江汉路,0,0.999771,30.5861812,114.2823964,ZE·老凯,0.000103127,0.999897,0,2,0,01月14日 11:59, , ,0,0.44466066,18,1,作品更新 oldschooltattoo#纹身##刺青##武汉纹身##武汉刺青##oldschool##Oldschool##手背纹身##武汉school纹身##武汉oldschool纹身#
540,武汉·黄鹤楼,0,0.979908,30.54552584,114.1896237,春暖花开saki,0.00904146,0.990959,0,2,0,01月14日 11:59, , ,0,0.52938045,22,1,黄鹤楼落梅轩看演出，橘颂，越人歌。今天橘颂是男声。#大武汉年卡#
541,武汉·东湖风景区,2,0.628232,30.54583487,114.4004719,夢颖Alice,0.832704,0.167296,0,0,0,01月14日 16:18,str,meng9071,0,0.918169117,23,1,一月28号 去武汉流浪狗基地做义工活动 有一起同行的小伙伴吗？？@武汉流浪狗互助 @武汉阳光流浪狗救助站义工吕伟
542,武汉·群光广场,0,0.979803,30.52757966,114.3496634,柳安迪-,0.0090887,0.990911,0,2,0,01月14日 16:02, , ,湖北 武汉,2.931269894,10,1,武汉纺织大学#手机摄影# 闲时养心.
543,武汉·武汉市第一医院,0,0.91619,30.5745905,114.2666098,复方sod熊果苷乳膏,0.0377144,0.962286,0,2,0,01月14日 16:02, , ,湖北 武汉,0.410438256,21,1,武汉一医院自制祛斑美白熊果苷开好啦#复方sod熊果苷乳膏##sod熊果苷乳膏##武汉第一医院复方sod熊果苷乳膏##祛斑#
544,武汉·花园道,0,0.999885,30.58474436,114.2802019,武汉instyle胡灿,5.16E-05,0.999948,0,2,0,01月14日 11:26, , ,0,0.30871907,20,1,#武汉烫发染发##武汉instyle# 可爱的刘海
545,武汉·金地自在城,0,0.967101,30.60934717,114.3809182,高端旅游定制zz,0.0148045,0.985196,0,2,0,01月14日 11:17, , ,湖北 咸宁,2.931269894,10,1,春节武汉巴厘岛最新计划最后少量余位??
546,武汉·徐东大街,0,0.999956,30.57885319,114.356581,咔咔亲子儿童摄影,1.97E-05,0.99998,0,2,0,01月14日 11:08,str,kakamofa,0,0.918169117,23,1,那些个不经意的瞬间往往就是我们最想留下的故事用镜头记录你的美好100%真实客片#武汉亲子照##KAKA KIDS#武汉摄影#潮童##kaka kids##武汉宝宝照#
547,武汉·金地天悦,2,0.87729,30.49581645,114.3848492,武汉三伏设计,0.0552195,0.944781,1,2,0,01月14日 11:08, , ,武汉三伏装饰设计工程有限公司,2.931269894,10,1,O脏脏粉+墨绿，新北欧的家原来这么精致！???? ???????????? | ????????????????????????：金地天悦????????：131㎡??????????：北欧轻奢风
548,武汉·港澳台风情街,0,0.431962,30.58788561,114.2885601,老洪豆,0.744383,0.255617,0,0,0,01月14日 12:59, , ,湖北 武汉,0.44466066,18,1,武汉 街上，这样的人越来越多了！
549,武汉·街道口,0,0.491434,30.52650357,114.3537022,开年看樱花可好,0.771145,0.228855,0,0,0,01月14日 12:42, , ,湖北 武汉,2.931269894,10,1,博君一肖不是重庆人。。。武汉人也吃不惯啊
550,武汉·江汉路,0,0.988183,30.5861812,114.2823964,千玺刺青,0.00531749,0.994682,0,2,0,01月14日 12:26, , ,其他,0.44466066,18,1,#武汉纹身#
551,武汉·晴川桥,1,0.971663,30.56564262,114.2792104,绪然燃释,0.0127516,0.987248,0,2,0,01月14日 13:59, , ,0,0.52938045,22,1,武汉久违的大晴天 忙碌了一早上 晒晒太阳…
552,武汉·江汉路,0,0.95234,30.5861812,114.2823964,武汉赫然,0.0214469,0.978553,0,2,0,01月14日 13:48, , ,0,0.44466066,18,1,#武汉记录#客照
553,武汉·江汉路,0,0.999513,30.5861812,114.2823964,武汉怪咖纹身刺青,0.000219283,0.999781,0,2,0,01月14日 13:48, , ,青岛怪咖彩绘文化传播有限公司,0.44466066,18,1,淡泊的夕阳逐渐笼罩住这座古老而神秘的城堡，夜幕降临城堡处传来一阵阵呱~呱~呱~怪咖纹身刺青武汉刺青纹身武汉纹身刺青武汉#全球时尚纹身##城堡纹身#
554,武汉·武汉大学,0,0.829586,30.53980024,114.3609749,戴天力摄影,0.0766863,0.923314,0,2,0,01月14日 13:48,str,uc241351269,0,0.918169117,23,1,武汉大学
555,武汉·江汉路,0,0.995075,30.5861812,114.2823964,明天图库,0.00221606,0.997784,0,2,0,01月14日 14:50, , ,湖北,0.44466066,18,1,粗线条明天刺青#明天图库##武汉纹身#
556,武汉·晴川阁,0,0.747082,30.55798169,114.2793451,摄影师吴文培,0.113813,0.886187,0,2,0,01月14日 14:50,str,mcwen2010,0,0.52938045,22,1,三楚勝境！晴川閣一處！2武汉·晴川阁
557,武汉·中南路站,0,0.958149,30.53758186,114.3262693,空档流年61549,0.018833,0.981167,0,2,0,01月14日 14:39, , ,其他,0.918169117,23,1,武汉太好了 不想离开 吉林那个渣渣
558,武汉·融科天城,0,0.998847,30.60121405,114.2942021,武汉晶美牙医隐形正畸中心,0.000518939,0.999481,0,2,0,01月14日 14:39, , ,湖北,0.44466066,18,1,#骨性前突# 【矫正案例】男神变身记大一男孩矫正前嘴巴突，觉得不自信，前突解决后气质up，即将毕业，牙齿面型都得到很大的改变大学里最适合矫正啦！牙齿矫正#武汉隐适美# @武汉牙齿矫正甘骏捷医生
559,武汉·东湖风景区,0,0.804112,30.54583487,114.4004719,小卖部的店长,0.0881496,0.91185,0,2,0,01月14日 14:23, , ,湖北 武汉,0.918169117,23,1,大江大湖大武汉。
560,武汉·武汉国际广场,0,0.996916,30.58236032,114.265754,泰国试管婴儿顾问平安,0.00138789,0.998612,0,2,0,01月14日 14:23, , ,湖北 武汉,0.30871907,20,1,“春” 已经来了?“节” 不知道怎么过?“礼” 我早就帮您想好了?“物” 超所值?“来” 一个可爱的宝宝吧?“了” 却您最真的心愿！?????#备孕##武汉柒月健康泰国试管婴儿##泰国试管婴儿#
561,武汉·徐东大街,0,0.995514,30.57885319,114.356581,每天快乐的老男孩,0.00201858,0.997981,0,2,0,01月15日 09:37,str,zql6659,0,0.918169117,23,1,#雪# 武汉下小雪了，等雪下大了，出去看雪景
562,武汉·汉口火车站,0,0.28421,30.62153636,114.24898,今年我改什么名字呢,0.322106,0.677894,0,2,0,01月15日 09:30, , ,湖北 武汉,0.30871907,20,1,#武汉肺炎不排除有限人传人可能#人在汉口 刚带口罩 咳嗽的人真的挺多的 顶不住
563,武汉·武汉市儿童医院,0,0.302813,30.63573648,114.3917392,耗耗与豪豪,0.534859,0.465141,0,1,0,01月15日 09:19, , ,湖北 武汉,0.721320639,19,1,#武汉肺炎不排除有限人传人可能#作为一个每天徘徊在儿童医院和同济医院的人，希望大家一定要保护好自己呀
564,武汉·唐家墩,0,0.872127,30.61638776,114.2649376,爽朗的show107,0.0575431,0.942457,0,2,0,01月15日 10:59, , ,湖北 武汉,0.30871907,20,1,小时候的年 是新衣服 新袜子 夜里的烟花和满满的大红包 现在现在 老家吃饭  武汉吃饭  广东吃饭 越南吃饭
565,武汉·徐东大街,0,0.999962,30.57885319,114.356581,咔咔亲子儿童摄影,1.71E-05,0.999983,0,2,0,01月15日 10:56,str,kakamofa,0,0.918169117,23,1,"最近咨询亲子照的看过来啦白T恤&头纱简简单单却幸福感十足[愉快]妈妈秒变迷妹cp感十足哦100%真实客片#武汉亲子照##KAKA KIDS#武汉摄影#潮童##宝宝照,孕妇照,亲子照#"
566,武汉·大智嘉园,0,0.839047,30.59255353,114.2876786,谨言慎行可还好,0.0724288,0.927571,0,2,0,01月15日 10:51, , ,四川,0.44466066,18,1,#武汉下雪#武汉下雪这么多次，我这一次也没看到，只有滴滴答答飘零的雨
567,武汉·武汉会议中心,0,0.88232,30.61487459,114.2905356,攀升的無崖子,0.0529559,0.947044,0,2,0,01月15日 10:51,str,conniewoo,0,0.44466066,18,1,攀升电脑被选为武汉市第一批国际商会企业会员单位
568,武汉·新阳广场,0,0.887657,30.5342144,114.1925284,第三人称htl,0.505617,0.494383,0,1,0,01月15日 10:38, , ,湖北 武汉,0.52938045,22,1,#武汉下雪#所以哪里在下？
569,武汉·武汉高铁站,5,0.747757,30.59386784,114.2866731,lql李庆龙,0.113509,0.886491,0,2,0,01月15日 10:33, , ,北京,0.44466066,18,1,今天武汉冰雹、降温，回家的人太辛苦了～感受到了春运～
570,武汉·板桥社区,4,0.21679,30.47149708,114.3106445,NKS___,0.647556,0.352444,0,0,0,01月15日 10:27, , ,湖北 武汉,2.931269894,10,1,回到武汉就下雪了，温差太大还没适应过来
571,武汉·观澜外校城,0,0.0111017,30.51603285,114.1839123,小谭可以,0.445004,0.554996,0,2,0,01月15日 11:59, , ,湖北 武汉,0.52938045,22,1,#武汉下雪#为啥我只能看到大雨 太冷了！
572,武汉·黄鹤楼,0,0.859472,30.54552584,114.1896237,Yu_Monstar,0.0632375,0.936763,0,2,0,01月15日 11:59, , ,海外,0.52938045,22,1,武汉还是挺漂亮的最近我拍照太丑了事事让我沧桑啊~~~
573,武汉·金地·中心城,0,0.963322,30.59520986,114.2995562,刘佰萬_,0.0165049,0.983495,0,2,0,01月15日 11:59, , ,湖北 武汉,0.44466066,18,1,武汉租房 金地中心城两单整租，个人房源无中介费。楼下就是BRT步行10分钟到地铁站。家具家电齐全 ???
574,武汉·光谷软件园,0,0.985683,30.47945602,114.4011938,Kitty是我的狗,0.00644284,0.993557,0,2,0,01月15日 11:55, , ,0,2.931269894,10,1,#武汉下雪#想辟谣
575,武汉·徐东大街,0,0.975736,30.57885319,114.356581,A奔跑君,0.0109187,0.989081,0,2,0,01月15日 11:48, , ,0,0.918169117,23,1,感谢网友瞬间踩点武汉
576,武汉·湖北科教大厦,1,0.993768,30.54662339,114.3338774,武汉美妆,0.0028042,0.997196,0,2,0,01月15日 11:48,str,hgbaoliao,0,0.918169117,23,1,武汉美来自内心的善良和正确的三观不要以为化妆漂亮就行，更多的还是要内外美
577,武汉·江汉路,0,0.991806,30.5861812,114.2823964,武汉怪咖纹身刺青,0.00368721,0.996313,0,2,0,01月15日 12:58, , ,青岛怪咖彩绘文化传播有限公司,0.44466066,18,1,怪咖纹身工作室提前给大家拜个早年吧[米奇比心][米奇比心][米奇比心][米奇比心]怪咖纹身刺青武汉刺青纹身武汉纹身刺青武汉#全球时尚纹身#武汉
578,武汉·司门口,0,0.998658,30.54946088,114.294989,一丢丢卷毛,0.000604145,0.999396,0,2,0,01月15日 12:51, , ,湖北 武汉,0.918169117,23,1,吹空调嚯? 看雪恰零食#务实咖啡##武汉##下雪啦#
579,武汉·新世界百货武昌店,1,0.495231,30.57675002,114.3548724,猪蹄子Y,0.227146,0.772854,0,2,0,01月15日 12:51, , ,其他,0.918169117,23,1,武汉租房还有1800左右的一室一厅吗
580,武汉·武汉大学,2,0.96347,30.53980024,114.3609749,林大里的小松鼠,0.983561,0.0164386,0,0,0,01月15日 12:42, , ,0,0.918169117,23,1,"为什么同样的反应我只有小伙伴1/4的产率我就看着那旋蒸一点点越旋越少,我这心呐,哇凉哇凉。下过雨的武汉真冷。"
581,武汉·华中师范大学,0,0.542814,30.5199928,114.3552674,别下雨呢,0.205733,0.794267,0,2,0,01月15日 12:42, , ,0,2.931269894,10,1,武汉真的下雪咯！然鹅俺还没回家！呜呜呜呜我最后的倔强都被打破了，冷得我我开了热空调！浪了几天的我终于开始干活了！明天就回家啦，今天就把它肝完！冲冲冲！#你好2020#
582,武汉·街道口,0,0.989475,30.52650357,114.3537022,我在天空看大海,0.00473629,0.995264,0,2,0,01月15日 12:23, , ,湖北 武汉,2.931269894,10,1,下雪啦下雪啦！终于等到武汉下雪
583,武汉·武汉大学,0,0.999532,30.53980024,114.3609749,武汉大学吃乎,0.000210523,0.999789,0,2,0,01月15日 12:03, , ,湖北 武汉,0.918169117,23,1,#武大吃乎美食##武汉美食##武汉探店# 精致的猪猪女孩必打卡！一起去喝下午茶吧~
584,武汉·武汉市第十七中学,4,0.835148,30.58342313,114.2223122,张子减,0.925817,0.0741835,0,0,0,01月15日 13:59, , ,0,0.410438256,21,1,昨天和今天我爱武汉 这天气跟渣男一样琢磨不定哈 冷死我了卧槽啊啊啊啊啊
585,武汉·后湖,0,0.901502,30.64924688,114.3013156,后湖丫头,0.955676,0.0443242,0,0,0,01月15日 13:59, , ,湖北 武汉,0.44466066,18,1,武汉下雪了，落地为水，是不是耍牛氓？
586,武汉·茶港(大洋百货),4,0.965716,30.57991257,114.2848147,blackrose0214,0.0154279,0.984572,0,2,0,01月15日 13:27, , ,湖北 武汉,0.30871907,20,1,每天都出去吃多好.昨天被骗喝了宝藏??，今天吃到了黑金流沙包.武汉终于下雪了！（肉眼可见??的这种）.跟冬雪最配的，永远是??呀！
587,武汉·积玉桥,0,0.994621,30.57731693,114.3083211,不正咖啡,0.00242043,0.99758,0,2,0,01月15日 13:27, , ,湖北 武汉,0.918169117,23,1,这么冷的天，出门见我们的都是真爱。不愿意出门的小宝贝，我们也有独家温暖准备，有空看看我们店饿了么，给您百里送温暖。[哇][哇][哇]#不正咖啡##就这一刻##武汉精品咖啡#
588,武汉·汉口火车站,0,0.99986,30.62153636,114.24898,情深劫持懒惰,6.30E-05,0.999937,0,2,0,01月15日 13:07, , ,湖北,0.30871907,20,1,#武汉下雪##武汉下雪了# 下雪??  武汉也是很美哒
589,武汉·江汉路,0,0.999327,30.5861812,114.2823964,武汉纹身湖佛刺青,0.000302934,0.999697,0,2,0,01月15日 13:07,str,027levin4,0,0.44466066,18,1,我开始了解真相燃烧的自由披萨#花体字纹身##奇卡诺##武汉纹身##胸口纹身#
